[{"name":"Departmental Store, Kanha","lat":17.1851134,"lng":78.223557,"rating":4.6,"reviews":199.0},{"name":"Mataji Electrical","lat":17.1857412,"lng":78.305637,"rating":4.6,"reviews":13.0},{"name":"Jyothi Electrical Hardware","lat":17.1858295,"lng":78.3046379,"rating":4.4,"reviews":9.0},{"name":"MUSIC POINT","lat":17.1868424,"lng":78.3024709,"rating":5.0,"reviews":1.0},{"name":"Pooja Electrical","lat":17.1857647,"lng":78.3059214,"rating":4.2,"reviews":5.0},{"name":"THE DHANLAXMI STEELS","lat":17.1901102,"lng":78.3119516,"rating":4.2,"reviews":34.0},{"name":"Guru's hardware and electrical","lat":17.1980132,"lng":78.3226565,"rating":5.0,"reviews":4.0},{"name":"Sri ganapathy electrical and","lat":17.2161577,"lng":78.338988,"rating":5.0,"reviews":1.0},{"name":"Bhawani Hardware","lat":17.2168198,"lng":78.3380362,"rating":4.6,"reviews":12.0},{"name":"Laxmi Narsimha Mobiles&Xerox","lat":17.1818049,"lng":78.3918906,"rating":5.0,"reviews":2.0},{"name":"Sona Digital studio photography & videography","lat":17.2085793,"lng":78.3901466,"rating":5.0,"reviews":2.0},{"name":"Sri photography","lat":17.1841093,"lng":78.3914482,"rating":5.0,"reviews":5.0},{"name":"RAHMATH TRADERS","lat":17.1847176,"lng":78.3920867,"rating":5.0,"reviews":6.0},{"name":"Sri Venkata Sai sanitary & Hardware","lat":17.2054334,"lng":78.3883984,"rating":5.0,"reviews":1.0},{"name":"Sri Manikanta Kirana and General stores","lat":17.2054397,"lng":78.3884029,"rating":5.0,"reviews":3.0},{"name":"K. B. G. Homes","lat":17.1881285,"lng":78.4023049,"rating":3.7,"reviews":14.0},{"name":"HONEY ELECTRONICS &MOBILES","lat":17.2084025,"lng":78.476831,"rating":3.7,"reviews":6.0},{"name":"Sri sai sales and services","lat":17.209139,"lng":78.476926,"rating":4.5,"reviews":12.0},{"name":"AYAAN MOBILES (Agencies) RYG MOBILES & ELECTRONICS","lat":17.2109031,"lng":78.4767161,"rating":4.1,"reviews":14.0},{"name":"Amar Mobiles","lat":17.2100912,"lng":78.4770102,"rating":4.8,"reviews":13.0},{"name":"s s electronics","lat":17.2068099,"lng":78.476347,"rating":3.0,"reviews":2.0},{"name":"Smartcare Computers","lat":17.2086978,"lng":78.4766432,"rating":5.0,"reviews":19.0},{"name":"Sri Sai Electronics And Mobiles","lat":17.2080235,"lng":78.476782,"rating":4.0,"reviews":4.0},{"name":"Faber Galleria","lat":17.198631,"lng":78.475715,"rating":4.9,"reviews":10.0},{"name":"SR Mobiles","lat":17.2114106,"lng":78.4768416,"rating":5.0,"reviews":91.0},{"name":"Mahadev CCTV Cameras","lat":17.2110941,"lng":78.4758321,"rating":5.0,"reviews":12.0},{"name":"Mi store mobi cafe","lat":17.2102791,"lng":78.4768097,"rating":4.2,"reviews":5.0},{"name":"MAHAVEER MOBILES Tukkuguda","lat":17.2116642,"lng":78.476713,"rating":4.9,"reviews":44.0},{"name":"Om sai electronics services","lat":17.2090792,"lng":78.4760924,"rating":3.7,"reviews":3.0},{"name":"Ceiling Cloth hanger & cctv camera,seles & service","lat":17.2093582,"lng":78.4765619,"rating":5.0,"reviews":3.0},{"name":"JK Super Market","lat":17.2102294,"lng":78.4769935,"rating":3.8,"reviews":293.0},{"name":"Sangam enterprise Electrical And Hardware & sanitary ware","lat":17.206349,"lng":78.4762804,"rating":5.0,"reviews":1.0},{"name":"Jay Telangana Electrical & Plumbing","lat":17.2110776,"lng":78.4767464,"rating":5.0,"reviews":1.0},{"name":"Sri Bhagavathi Electricals Hardwares & Paints","lat":17.2105288,"lng":78.4767076,"rating":4.5,"reviews":6.0},{"name":"Thirumala Paints & Electrical","lat":17.2106326,"lng":78.4769974,"rating":4.7,"reviews":12.0},{"name":"Hyder Auto Solutions","lat":17.2103243,"lng":78.4768469,"rating":5.0,"reviews":3.0},{"name":"Auto-electrician work","lat":17.2052956,"lng":78.4763228,"rating":5.0,"reviews":3.0},{"name":"Mr.Chai cafe","lat":17.2068786,"lng":78.4757695,"rating":4.6,"reviews":43.0},{"name":"Sangeetha - Thukkuguda","lat":17.2109923,"lng":78.4768938,"rating":4.8,"reviews":61.0},{"name":"Jjs communication mobiles","lat":17.2076229,"lng":78.4766086,"rating":2.3,"reviews":3.0},{"name":"Dewasi Mobiles","lat":17.2074914,"lng":78.4766447,"rating":3.7,"reviews":3.0},{"name":"SRI LAXMI MOBILES","lat":17.2089095,"lng":78.4765806,"rating":null,"reviews":null},{"name":"Venkateshwara Mobiles","lat":17.2072129,"lng":78.4766796,"rating":2.0,"reviews":1.0},{"name":"Kranthi Mobiles","lat":17.2092676,"lng":78.4767418,"rating":4.5,"reviews":4.0},{"name":"Sangeetha Gadgets - Thukkuguda","lat":17.211114,"lng":78.4767704,"rating":null,"reviews":null},{"name":"Sri Mahalaxmi Mobiles","lat":17.2112127,"lng":78.476722,"rating":5.0,"reviews":1.0},{"name":"Sri Mallikarjuna Automobiles","lat":17.1995275,"lng":78.4756451,"rating":5.0,"reviews":18.0},{"name":"A1 Mobile Shop","lat":17.2089973,"lng":78.4769647,"rating":null,"reviews":null},{"name":"Smoken monkey","lat":17.2078677,"lng":78.4764627,"rating":5.0,"reviews":2.0},{"name":"Padmavati Shopping mall","lat":17.207964,"lng":78.4764735,"rating":3.9,"reviews":41.0},{"name":"SS SUPER MARKET","lat":17.1918984,"lng":78.4752055,"rating":4.0,"reviews":1.0},{"name":"Venkata Sai Medical General Store","lat":17.2100592,"lng":78.4769988,"rating":4.3,"reviews":9.0},{"name":"Sri Mahalaxmi Pan Palace","lat":17.1912024,"lng":78.4747537,"rating":5.0,"reviews":18.0},{"name":"Dattatreya Automobiles","lat":17.2051779,"lng":78.4761348,"rating":4.7,"reviews":3.0},{"name":"HR STEEL AND HARDWARE","lat":17.1936408,"lng":78.4750091,"rating":5.0,"reviews":16.0},{"name":"Spike men's wear","lat":17.2089107,"lng":78.4765821,"rating":5.0,"reviews":1.0},{"name":"Sagar Collection","lat":17.2106438,"lng":78.4770133,"rating":3.6,"reviews":35.0},{"name":"Sri raghavendra bakery","lat":17.2090062,"lng":78.4768836,"rating":4.0,"reviews":35.0},{"name":"my fashion men's wear tukkuguda","lat":17.2109892,"lng":78.4768937,"rating":4.0,"reviews":4.0},{"name":"Trio Cafe","lat":17.2126267,"lng":78.4767284,"rating":4.5,"reviews":96.0},{"name":"TEA POT","lat":17.1969645,"lng":78.4757009,"rating":4.9,"reviews":83.0},{"name":"AMUL MILK Aarudra Enterprises","lat":17.2108131,"lng":78.4764151,"rating":5.0,"reviews":4.0},{"name":"S.S Album Design's printed gift's &Articles","lat":17.2084001,"lng":78.4765455,"rating":5.0,"reviews":1.0},{"name":"Radiant Appliances and Electronics Private Limited, LCGC Resolute Group","lat":17.2010077,"lng":78.491571,"rating":4.1,"reviews":163.0},{"name":"Mahalaxmi Electricals and Hardware Shop Prop:Raghuram Reddy","lat":17.2161388,"lng":78.5104058,"rating":5.0,"reviews":8.0},{"name":"Om Sai Hardware & Electricals","lat":17.2162055,"lng":78.5123105,"rating":4.7,"reviews":3.0},{"name":"Suryagiri Yellamma Kirana & General Store","lat":17.2161159,"lng":78.5146608,"rating":4.3,"reviews":73.0},{"name":"Xerox,Stationary CSC Center Sri Rama Communication and Online Service","lat":17.2153749,"lng":78.5111082,"rating":5.0,"reviews":269.0},{"name":"NH-Mart","lat":17.2023026,"lng":78.5312156,"rating":5.0,"reviews":1.0},{"name":"Aaimathaji Hardware & Electrical Sanitary & Paints","lat":17.2006663,"lng":78.5490538,"rating":null,"reviews":null},{"name":"S.S.Scales Electronics Weighing scales","lat":17.2003121,"lng":78.5504724,"rating":null,"reviews":null},{"name":"Dj Cinu Sounds","lat":17.2003412,"lng":78.5495224,"rating":null,"reviews":null},{"name":"3G Mobile's","lat":17.1997624,"lng":78.5505967,"rating":5.0,"reviews":1.0},{"name":"Ashok mobile","lat":17.2000318,"lng":78.5505205,"rating":5.0,"reviews":1.0},{"name":"GLOBAL COMPUTERS HYD","lat":17.213856,"lng":78.6045329,"rating":5.0,"reviews":2.0},{"name":"Maruthi Communication net centre","lat":17.2087044,"lng":78.619419,"rating":5.0,"reviews":1.0},{"name":"Ashapura Electricals And Hardware","lat":17.2088401,"lng":78.6192563,"rating":4.0,"reviews":11.0},{"name":"Lingamma Electronics","lat":17.2104079,"lng":78.6035119,"rating":null,"reviews":null},{"name":"Mahalaxmi electrical and sanitary","lat":17.2139803,"lng":78.6050439,"rating":4.9,"reviews":19.0},{"name":"Pawan hardware and electrical","lat":17.2103532,"lng":78.6017503,"rating":5.0,"reviews":2.0},{"name":"Sri Rama Hardware & Electrical","lat":17.2151286,"lng":78.6053597,"rating":5.0,"reviews":4.0},{"name":"FRIENDS MOBILES","lat":17.214235,"lng":78.6052616,"rating":5.0,"reviews":1.0},{"name":"Tcs ion digital zone","lat":17.2088093,"lng":78.6152223,"rating":4.1,"reviews":98.0},{"name":"Sri Sai Mobiles","lat":17.2137042,"lng":78.6049153,"rating":5.0,"reviews":1.0},{"name":"Sree Mahalaxmi Kirana And General Stores","lat":17.2142578,"lng":78.605281,"rating":3.9,"reviews":14.0},{"name":"Shiva Mobiles","lat":17.2140481,"lng":78.6051932,"rating":null,"reviews":null},{"name":"Pai International - Ibrahimpatnam","lat":17.1838508,"lng":78.6503381,"rating":5.0,"reviews":3924.0},{"name":"Bajaj Electronics - Ibrahimpatnam","lat":17.1912318,"lng":78.647454,"rating":3.6,"reviews":120.0},{"name":"Universal electronics","lat":17.193711,"lng":78.6458759,"rating":5.0,"reviews":1.0},{"name":"Digital Express Mini, Ibrahimptnam","lat":17.1892077,"lng":78.6484403,"rating":3.9,"reviews":24.0},{"name":"Hi tech electronics and appliances","lat":17.1908958,"lng":78.6527974,"rating":5.0,"reviews":11.0},{"name":"Arshad Electronics","lat":17.1930064,"lng":78.6469415,"rating":4.1,"reviews":8.0},{"name":"Sai Padma Electronics & Electrical","lat":17.191862,"lng":78.646616,"rating":2.7,"reviews":3.0},{"name":"S.S. Music Center","lat":17.1956737,"lng":78.6481867,"rating":5.0,"reviews":3.0},{"name":"Ashok Electronics","lat":17.1919444,"lng":78.6488838,"rating":3.0,"reviews":2.0},{"name":"Nandi Electrical sanitary and paints ibrahimpatnam","lat":17.1922406,"lng":78.6480034,"rating":4.0,"reviews":1.0},{"name":"Rathna Mobiles.","lat":17.1930792,"lng":78.6470721,"rating":4.1,"reviews":16.0},{"name":"Mi store","lat":17.1912014,"lng":78.6470653,"rating":5.0,"reviews":12.0},{"name":"Realme store","lat":17.1912144,"lng":78.6470614,"rating":5.0,"reviews":12.0},{"name":"Kananu Electrical Works&Sales","lat":17.1917775,"lng":78.6505383,"rating":null,"reviews":null},{"name":"SUJITH COMPUTERS","lat":17.1923953,"lng":78.6481677,"rating":3.9,"reviews":31.0},{"name":"KEY - RUN Digital Studio","lat":17.1904603,"lng":78.6498935,"rating":5.0,"reviews":1.0},{"name":"SK CSC DIGITAL SEVA","lat":17.1927674,"lng":78.6512511,"rating":null,"reviews":null},{"name":"Jilani Generator Works","lat":17.1937215,"lng":78.6454482,"rating":5.0,"reviews":2.0},{"name":"Sri Sai Krishna Electrical And Hardware","lat":17.1904449,"lng":78.6474944,"rating":5.0,"reviews":1.0},{"name":"S S COMPUTERS","lat":17.1919346,"lng":78.6463061,"rating":4.6,"reviews":11.0},{"name":"Kiran Kumar City Electrial","lat":17.1856833,"lng":78.6572568,"rating":5.0,"reviews":2.0},{"name":"HANUMAN ELECTRICAL & SANITARY","lat":17.1898311,"lng":78.6534573,"rating":5.0,"reviews":4.0},{"name":"Authorised Samsung CE Service Center - Ms Techno Services","lat":17.193429,"lng":78.651509,"rating":4.5,"reviews":17.0},{"name":"Anand Photo Studio","lat":17.1966212,"lng":78.6488827,"rating":3.8,"reviews":5.0},{"name":"Sri Gururagavendhra Electronic And Electricals","lat":17.1908251,"lng":78.6458666,"rating":5.0,"reviews":1.0},{"name":"Sravani Sun Dth Distributors","lat":17.191877,"lng":78.6468489,"rating":1.0,"reviews":1.0},{"name":"Mythry Internet & Xerox","lat":17.1915522,"lng":78.6464986,"rating":3.8,"reviews":67.0},{"name":"Airtel DTH(Balaji Services)","lat":17.1917559,"lng":78.6468506,"rating":4.0,"reviews":5.0},{"name":"SMILEY ONLINE SERVICES AND XEROX","lat":17.1884306,"lng":78.6490411,"rating":null,"reviews":null},{"name":"Sri Krishna Digital Seva","lat":17.1919083,"lng":78.6464246,"rating":4.3,"reviews":3.0},{"name":"MAHALAXMI AGENCY","lat":17.1844366,"lng":78.6501788,"rating":4.4,"reviews":23.0},{"name":"Sri Ganesh Electrical And Hardware ibrahimpatnam ranga reddy dist 501506","lat":17.1926739,"lng":78.6466005,"rating":5.0,"reviews":1.0},{"name":"VIJAYLAXMI ENTERPRISES","lat":17.1858489,"lng":78.6498781,"rating":3.4,"reviews":5.0},{"name":"SRI RAMA ENTERPRISES","lat":17.1853531,"lng":78.6502122,"rating":4.9,"reviews":7.0},{"name":"Rishith Electric Vehicles store","lat":17.1828464,"lng":78.6508682,"rating":3.8,"reviews":4.0},{"name":"Sri Raghavandar Engineering Work","lat":17.1939058,"lng":78.6455471,"rating":1.0,"reviews":1.0},{"name":"Ss Mobiles","lat":17.1929773,"lng":78.6470918,"rating":5.0,"reviews":37.0},{"name":"SRI LAXMI TELECOME &XEROX","lat":17.1895868,"lng":78.6477428,"rating":4.2,"reviews":10.0},{"name":"Cell Bay","lat":17.1918221,"lng":78.6468781,"rating":5.0,"reviews":5.0},{"name":"VODAFONE MINI STORE IBRAHIMPATNAM","lat":17.192125,"lng":78.646917,"rating":3.2,"reviews":38.0},{"name":"Praveen Mobiles","lat":17.1917013,"lng":78.6502192,"rating":3.9,"reviews":10.0},{"name":"R R Mobiles","lat":17.1924726,"lng":78.6468694,"rating":3.0,"reviews":2.0},{"name":"Authorized Samsung Mobiles Stores - Ibrahimpatnam, Hyderabad","lat":17.1911943,"lng":78.647409,"rating":null,"reviews":null},{"name":"Mega D Mart","lat":17.192246,"lng":78.6485582,"rating":4.5,"reviews":295.0},{"name":"Indirala Jangaiah Gold Shop(IJS)","lat":17.197304,"lng":78.6499403,"rating":4.6,"reviews":19.0},{"name":"Samad Ac Repair","lat":17.1955534,"lng":78.6485226,"rating":5.0,"reviews":7.0},{"name":"Sai Harsha Mobile Shop","lat":17.1929202,"lng":78.6470079,"rating":3.0,"reviews":2.0},{"name":"Kanakadurga Super Market","lat":17.1937738,"lng":78.6463558,"rating":3.8,"reviews":321.0},{"name":"Anis Gold & Silver","lat":17.1973115,"lng":78.6495391,"rating":5.0,"reviews":2.0},{"name":"S.R Mobiles","lat":17.1937258,"lng":78.6461706,"rating":4.2,"reviews":5.0},{"name":"Vinayaka mobile","lat":17.1922672,"lng":78.6465872,"rating":4.5,"reviews":2.0},{"name":"BR Studios and Gift Store","lat":17.1927831,"lng":78.6467789,"rating":5.0,"reviews":1.0},{"name":"Mallappa Super Market","lat":17.1920247,"lng":78.6467659,"rating":4.2,"reviews":17.0},{"name":"Xpose the fashion store","lat":17.1900747,"lng":78.6479502,"rating":5.0,"reviews":2.0},{"name":"Shivani mobile and xerox","lat":17.192462,"lng":78.6475021,"rating":4.8,"reviews":4.0},{"name":"TASTY FOOD COURT","lat":17.1914565,"lng":78.6461365,"rating":4.6,"reviews":25.0},{"name":"CHAI DHUKANAM","lat":17.1862353,"lng":78.6497548,"rating":4.3,"reviews":15.0},{"name":"SAIRAM AUTOMOBILES","lat":17.1893723,"lng":78.6478403,"rating":5.0,"reviews":1.0},{"name":"Ss Enterprises","lat":17.1919753,"lng":78.6466267,"rating":null,"reviews":null},{"name":"Swaraj.","lat":17.1825036,"lng":78.6515841,"rating":4.4,"reviews":14.0},{"name":"PADMAJA SUZUKI","lat":17.18274,"lng":78.6509513,"rating":4.0,"reviews":6.0},{"name":"GLASS BHAVANI GLASS ALLUMINUM & PLAYWOOD HARDWARE","lat":17.1863974,"lng":78.6496937,"rating":5.0,"reviews":1.0},{"name":"Friend's Wear Ibrahimpatnam","lat":17.1937074,"lng":78.6460741,"rating":3.4,"reviews":65.0},{"name":"Sri Durga Automobiles","lat":17.1846367,"lng":78.6501818,"rating":5.0,"reviews":1.0},{"name":"Jai Hanuman mobiles","lat":17.1935356,"lng":78.6461413,"rating":null,"reviews":null},{"name":"P.P.MOBILES & FINTAX CONSULTANCY","lat":17.225303,"lng":78.1996625,"rating":5.0,"reviews":2.0},{"name":"Dagan Enterprises","lat":17.2208583,"lng":78.1973235,"rating":null,"reviews":null},{"name":"BHAVANA STEEL AND HOME APPLIANCES","lat":17.2255332,"lng":78.198453,"rating":null,"reviews":null},{"name":"SREE GANESH SUPER MART","lat":17.2257575,"lng":78.197695,"rating":4.1,"reviews":232.0},{"name":"PATEL HARDWARE AND ELECTRICAL","lat":17.2257132,"lng":78.197323,"rating":5.0,"reviews":2.0},{"name":"MAHADEV ELECTRICALS &HARDWARE","lat":17.2252298,"lng":78.2003275,"rating":5.0,"reviews":11.0},{"name":"Venkatesh Mobile","lat":17.2244136,"lng":78.2050657,"rating":4.4,"reviews":10.0},{"name":"Balaji Mobile Store","lat":17.2257863,"lng":78.1965853,"rating":5.0,"reviews":2.0},{"name":"Krishna Mobiles","lat":17.2256341,"lng":78.1975521,"rating":2.3,"reviews":3.0},{"name":"SRI SAI MOBILES","lat":17.2256699,"lng":78.19627,"rating":null,"reviews":null},{"name":"Laxmi Automobile","lat":17.2253566,"lng":78.2022047,"rating":5.0,"reviews":1.0},{"name":"SRI LAXMI JEWELLERS","lat":17.2252772,"lng":78.200026,"rating":5.0,"reviews":1.0},{"name":"DMR Wholesale & Retail Kirana & General Store","lat":17.2258112,"lng":78.196066,"rating":5.0,"reviews":2.0},{"name":"DIAMOND SPARES AND ELECTRICALS","lat":17.2312434,"lng":78.3581298,"rating":5.0,"reviews":9.0},{"name":"Sharif diesel Mechanic","lat":17.2310706,"lng":78.3592905,"rating":4.7,"reviews":14.0},{"name":"Chai Bunk Shamshabad","lat":17.2340585,"lng":78.3555657,"rating":4.3,"reviews":744.0},{"name":"Chai Biscuit","lat":17.2259337,"lng":78.34669,"rating":4.5,"reviews":17.0},{"name":"HARI HARA AUTO MOBILES","lat":17.2315778,"lng":78.3578538,"rating":5.0,"reviews":3.0},{"name":"SRI HANUMAN STEELS","lat":17.2296562,"lng":78.351819,"rating":4.9,"reviews":10.0},{"name":"SEATING WORLD WAREHOUSE","lat":17.2337166,"lng":78.3878779,"rating":4.0,"reviews":11.0},{"name":"Starbucks","lat":17.2354464,"lng":78.4252007,"rating":4.5,"reviews":75.0},{"name":"school","lat":17.2352573,"lng":78.4306297,"rating":1.9,"reviews":8.0},{"name":"Starbucks","lat":17.2353706,"lng":78.4326296,"rating":4.7,"reviews":49.0},{"name":"Itc Shop","lat":17.2355141,"lng":78.4298378,"rating":3.4,"reviews":5.0},{"name":"Da Milano Italia","lat":17.235208,"lng":78.4301144,"rating":5.0,"reviews":2.0},{"name":"De Novo Technology Solutions","lat":17.2370182,"lng":78.4790312,"rating":5.0,"reviews":31.0},{"name":"Vision tecc CCTV Dealers CC camera Sales and Services","lat":17.2219996,"lng":78.4826976,"rating":4.9,"reviews":34.0},{"name":"Vaishnavi bakery ,Adibatla,tcs road hyderabad, Telangana","lat":17.2359434,"lng":78.5410557,"rating":3.9,"reviews":14.0},{"name":"Indian Servers","lat":17.226658,"lng":78.553653,"rating":5.0,"reviews":7.0},{"name":"Jagadamba mobile&Electrons","lat":17.233745,"lng":78.5423485,"rating":null,"reviews":null},{"name":"Sri Gayatri mobile","lat":17.2349084,"lng":78.5417979,"rating":null,"reviews":null},{"name":"MR. CHAI DUDE","lat":17.2347276,"lng":78.5610672,"rating":4.6,"reviews":10.0},{"name":"JB ONLINE Service & Stationary,XEROX","lat":17.2347981,"lng":78.5618474,"rating":4.6,"reviews":12.0},{"name":"RRR SUPER MARKET (Aruna enterprises)","lat":17.2346268,"lng":78.561509,"rating":5.0,"reviews":45.0},{"name":"Telangana Chai","lat":17.2337771,"lng":78.5654696,"rating":4.3,"reviews":411.0},{"name":"Tata Consultancy Services","lat":17.2309384,"lng":78.5634604,"rating":4.4,"reviews":6850.0},{"name":"Anji mobile shop","lat":17.2339558,"lng":78.5638478,"rating":5.0,"reviews":3.0},{"name":"AV Dream Mobiles","lat":17.2349506,"lng":78.5610128,"rating":5.0,"reviews":4.0},{"name":"Agra Sweets & Veg Baker's (Pure Ghee Sweets)","lat":17.2345547,"lng":78.5627817,"rating":3.8,"reviews":49.0},{"name":"Sri Venkateshwara Kirana & General Store ( Wholesale &Retail)","lat":17.234157,"lng":78.5629737,"rating":5.0,"reviews":1.0},{"name":"Saritha Nilayam","lat":17.2281463,"lng":78.5894182,"rating":4.8,"reviews":8.0},{"name":"Manikanta mobiles","lat":17.2312039,"lng":78.5887891,"rating":5.0,"reviews":2.0},{"name":"MAHALAKSHMI HOME NEEDS & ELECTRONIC","lat":17.2277088,"lng":78.5917221,"rating":5.0,"reviews":1.0},{"name":"Ramdev home appliances & plastic","lat":17.2313867,"lng":78.5890685,"rating":null,"reviews":null},{"name":"Sri Sai Manikanta Stores","lat":17.2305651,"lng":78.5884809,"rating":5.0,"reviews":3.0},{"name":"Shashi Bakers","lat":17.2317019,"lng":78.5886462,"rating":4.0,"reviews":5.0},{"name":"MF BATTERIES AND AUTO ELECTRICAL WORK","lat":17.2475697,"lng":78.2561104,"rating":5.0,"reviews":3.0},{"name":"Sri Durga Bhavani Mobile store & gifit articles","lat":17.2465332,"lng":78.2534796,"rating":5.0,"reviews":1.0},{"name":"DIAMOND MOBILES SALES AND SERVICE ALL MOBILE PHONES REPAIR AND BANKING \ud83c\udfe6 \ud83c\udfe7 SERVICES(all Recharges Available Here)","lat":17.2475427,"lng":78.2561681,"rating":4.5,"reviews":11.0},{"name":"Suresh Phone Shop","lat":17.2471766,"lng":78.2546552,"rating":5.0,"reviews":1.0},{"name":"METTU JAGADISH","lat":17.251126,"lng":78.2471058,"rating":null,"reviews":null},{"name":"Sri Manikanta Dj Sounds&Lightings","lat":17.2574814,"lng":78.3364135,"rating":3.8,"reviews":18.0},{"name":"The Mak Technologies","lat":17.2455052,"lng":78.3733411,"rating":5.0,"reviews":3.0},{"name":"S S Sound","lat":17.2469302,"lng":78.3732024,"rating":5.0,"reviews":1.0},{"name":"Sangeetha mobiles","lat":17.2455711,"lng":78.3719376,"rating":4.0,"reviews":1.0},{"name":"Mobo surveillance system","lat":17.2455597,"lng":78.3714876,"rating":4.6,"reviews":11.0},{"name":"Mishrajifamilystore","lat":17.2541013,"lng":78.3681138,"rating":5.0,"reviews":1.0},{"name":"Car Battery Jumpstart 24\/7 Roadside Assistance Shamshabad","lat":17.256655,"lng":78.3825028,"rating":5.0,"reviews":9.0},{"name":"Laxmi Steel Gift Store","lat":17.2601723,"lng":78.3921611,"rating":4.8,"reviews":14.0},{"name":"Pandu Kirana Store","lat":17.2521334,"lng":78.3691376,"rating":4.1,"reviews":99.0},{"name":"NEW GLASS WORLD 1","lat":17.2465356,"lng":78.3721923,"rating":4.7,"reviews":25.0},{"name":"Croma - Hyderabad Airport-2","lat":17.2402895,"lng":78.4294449,"rating":2.3,"reviews":6.0},{"name":"RS Online Services","lat":17.2469028,"lng":78.451688,"rating":4.2,"reviews":5.0},{"name":"SHIVA TRADERS .Electrical.Hardware & Sanitary.etc","lat":17.2516672,"lng":78.4524354,"rating":4.0,"reviews":10.0},{"name":"Sri Hari hara suthan mobile's and electronics","lat":17.2491597,"lng":78.4509231,"rating":5.0,"reviews":2.0},{"name":"ONE MOBILE SHOP","lat":17.2519949,"lng":78.4526136,"rating":null,"reviews":null},{"name":"Mivi","lat":17.2406554,"lng":78.4740367,"rating":3.8,"reviews":3174.0},{"name":"LK KIRANA & GENERAL STORE","lat":17.2502647,"lng":78.4518069,"rating":5.0,"reviews":7.0},{"name":"Bajaj Electronics - Manneguda","lat":17.2545033,"lng":78.5859406,"rating":3.9,"reviews":55.0},{"name":"Ambe Mata Electrical And Hardware","lat":17.255326,"lng":78.585486,"rating":4.3,"reviews":3.0},{"name":"Zyca Cafe & Kitchen","lat":17.2546553,"lng":78.585547,"rating":4.6,"reviews":627.0},{"name":"Gowtham Kirana And General Store","lat":17.2553231,"lng":78.585541,"rating":4.4,"reviews":30.0},{"name":"Authorized Samsung Mobiles Stores - Manneguda, Hyderabad","lat":17.2545047,"lng":78.5859413,"rating":null,"reviews":null},{"name":"Shalom Mobiles And Stationary","lat":17.2552444,"lng":78.585721,"rating":5.0,"reviews":1.0},{"name":"Srinivas Kirana Stores","lat":17.2558439,"lng":78.586082,"rating":4.2,"reviews":60.0},{"name":"Durbar pan mahal","lat":17.2576099,"lng":78.5857553,"rating":4.9,"reviews":10.0},{"name":"Sri Sai Kirana and General Store","lat":17.2537014,"lng":78.590323,"rating":4.3,"reviews":7.0},{"name":"IT WAREHOUSE","lat":17.2531599,"lng":78.6456195,"rating":5.0,"reviews":4.0},{"name":"Jai Bhavani ELectrical Hardware","lat":17.2470782,"lng":78.2532237,"rating":null,"reviews":null},{"name":"Manikanta Trader's Kirana and General store, Online Services","lat":17.2477836,"lng":78.2615986,"rating":5.0,"reviews":1.0},{"name":"SRI MANIKANTA ONLINE SERVICE","lat":17.2464013,"lng":78.2535662,"rating":5.0,"reviews":4.0},{"name":"Dasyam Fibernet","lat":17.2668739,"lng":78.2568697,"rating":5.0,"reviews":120.0},{"name":"Mateshwari hardware paint sanitary and electrical","lat":17.2627747,"lng":78.3584427,"rating":3.0,"reviews":2.0},{"name":"Luckin coffee","lat":17.2630485,"lng":78.3602611,"rating":4.8,"reviews":5.0},{"name":"Lakshay Enterprises","lat":17.264241,"lng":78.3765283,"rating":4.7,"reviews":7.0},{"name":"M D Siddiq Refrigiration","lat":17.2648808,"lng":78.3736908,"rating":4.9,"reviews":146.0},{"name":"The security solution","lat":17.2662084,"lng":78.373536,"rating":5.0,"reviews":4.0},{"name":"Laxmi Narayan Electrical","lat":17.2639876,"lng":78.3788692,"rating":null,"reviews":null},{"name":"SA electrical","lat":17.264753,"lng":78.3757687,"rating":5.0,"reviews":4.0},{"name":"Ramdev paints & electrical","lat":17.2636055,"lng":78.3750331,"rating":null,"reviews":null},{"name":"SRI Rajaram Hardware shamshabad","lat":17.2641076,"lng":78.3686103,"rating":4.0,"reviews":29.0},{"name":"BHARAT SAINITARY ELECTRICAL PAINT","lat":17.2644675,"lng":78.3760987,"rating":null,"reviews":null},{"name":"KANISHKA ENTERPRISES-HYDERABAD","lat":17.261594,"lng":78.3734975,"rating":5.0,"reviews":4.0},{"name":"Siddhi vinayak computer cctv and mobile","lat":17.2662575,"lng":78.3768995,"rating":5.0,"reviews":1.0},{"name":"Sri Laxmi Auto Mobiles","lat":17.2652171,"lng":78.3771137,"rating":4.6,"reviews":10.0},{"name":"New Maxxis car decors","lat":17.2646667,"lng":78.372325,"rating":4.1,"reviews":14.0},{"name":"Sri Mataji kirana store","lat":17.2645254,"lng":78.3757015,"rating":5.0,"reviews":6.0},{"name":"Sri Lahari Electronics","lat":17.2616201,"lng":78.3887209,"rating":3.8,"reviews":31.0},{"name":"Bajaj Electronics - Shamshabad","lat":17.2639049,"lng":78.3896858,"rating":3.9,"reviews":853.0},{"name":"Sri Surya Stationary and Xerox","lat":17.262228,"lng":78.3870549,"rating":4.9,"reviews":10.0},{"name":"Chamunda Electrical & Sanitary","lat":17.2631146,"lng":78.3824544,"rating":5.0,"reviews":3.0},{"name":"Sri Durga Electricals","lat":17.2630561,"lng":78.384828,"rating":3.9,"reviews":11.0},{"name":"Divya Electronics","lat":17.2626309,"lng":78.3892405,"rating":3.0,"reviews":1.0},{"name":"TATA\/PLAY SALES&SERVICES","lat":17.2637804,"lng":78.3814661,"rating":4.8,"reviews":10.0},{"name":"AEM Computers & Mobiles","lat":17.2631983,"lng":78.3882302,"rating":3.8,"reviews":41.0},{"name":"Lucky Gift and Novelties","lat":17.2612329,"lng":78.3860845,"rating":4.9,"reviews":270.0},{"name":"Sri Ganesh Mobiles and laptops repair","lat":17.2628791,"lng":78.3880383,"rating":4.1,"reviews":15.0},{"name":"Ambaji Home Appliance","lat":17.263087,"lng":78.3869738,"rating":3.0,"reviews":1.0},{"name":"MS Mobile","lat":17.2627655,"lng":78.3870829,"rating":4.6,"reviews":10.0},{"name":"Seven Star Electrical Store","lat":17.2632378,"lng":78.3831988,"rating":4.5,"reviews":23.0},{"name":"Gayatri Electronics & Mobiles","lat":17.2619287,"lng":78.3886869,"rating":3.6,"reviews":5.0},{"name":"Golden Mobiles","lat":17.2615505,"lng":78.3883078,"rating":4.4,"reviews":10.0},{"name":"Sangeetha Gadgets - Shamshabad","lat":17.2610552,"lng":78.3863628,"rating":4.2,"reviews":367.0},{"name":"Sri Laxmi Electronics","lat":17.2618932,"lng":78.3885082,"rating":4.2,"reviews":9.0},{"name":"My Jio Store","lat":17.2620249,"lng":78.3883287,"rating":3.3,"reviews":24.0},{"name":"Mart Electronics","lat":17.2622919,"lng":78.3887129,"rating":null,"reviews":null},{"name":"Standard Electricals & Retail","lat":17.2608919,"lng":78.3899678,"rating":5.0,"reviews":2.0},{"name":"Maruti Medical & General Store","lat":17.2629741,"lng":78.3872714,"rating":4.0,"reviews":1.0},{"name":"Prestige Xclusive - Shamshabad, Hyderabad","lat":17.2628718,"lng":78.3847864,"rating":4.1,"reviews":18.0},{"name":"EPW INDIA LIMITED","lat":17.262,"lng":78.3886037,"rating":5.0,"reviews":2.0},{"name":"S M Mobile Shop","lat":17.2621017,"lng":78.3876593,"rating":3.1,"reviews":8.0},{"name":"ARFATH CCTV CAMERA & MOBILE","lat":17.2621933,"lng":78.3887457,"rating":5.0,"reviews":17.0},{"name":"SURYA ELECTRONICS&HOME APPLIANCES","lat":17.26209,"lng":78.388942,"rating":null,"reviews":null},{"name":"Sree Rama Computers","lat":17.262299,"lng":78.3864021,"rating":3.1,"reviews":8.0},{"name":"Bhagavati Electronics","lat":17.2623746,"lng":78.389025,"rating":4.5,"reviews":4.0},{"name":"Airtel Store - Shamshabad","lat":17.2640005,"lng":78.3898953,"rating":3.3,"reviews":101.0},{"name":"Sree Venkteshwara Electricals & Electronics","lat":17.2618695,"lng":78.3884885,"rating":null,"reviews":null},{"name":"Dawntech electronic private limited","lat":17.2619301,"lng":78.387971,"rating":1.4,"reviews":89.0},{"name":"sri sai Teja electricals","lat":17.262878,"lng":78.3862596,"rating":null,"reviews":null},{"name":"Mohammed Yousuf","lat":17.2635616,"lng":78.3902154,"rating":5.0,"reviews":1.0},{"name":"Global Spare Parts","lat":17.2632764,"lng":78.3884352,"rating":5.0,"reviews":26.0},{"name":"Mega Furniture's and electronic's","lat":17.26083,"lng":78.3910611,"rating":4.1,"reviews":13.0},{"name":"Artize Authorised Dealer - Shamshabad, Hyderabad I Premium Bath & Sanitaryware, Shower, Faucets And Kitchen Mixer Taps","lat":17.2726452,"lng":78.3990809,"rating":5.0,"reviews":3.0},{"name":"SN COMPUTER","lat":17.2637911,"lng":78.3882462,"rating":5.0,"reviews":6.0},{"name":"Rupa Steel House","lat":17.2664503,"lng":78.3901251,"rating":4.0,"reviews":5.0},{"name":"Lakshmi Narsimha PC World","lat":17.2607624,"lng":78.3854714,"rating":5.0,"reviews":1.0},{"name":"Sri Balaji Electronics","lat":17.2643637,"lng":78.3904103,"rating":null,"reviews":null},{"name":"NIRMALA ELECTRONICS","lat":17.2649268,"lng":78.3862467,"rating":null,"reviews":null},{"name":"ESSCO Authorised Dealer - Shamshabad, Hyderabad","lat":17.2726444,"lng":78.3991083,"rating":null,"reviews":null},{"name":"Blue Star, voltas & Hitachi A\/C Service Centre","lat":17.2604266,"lng":78.3849101,"rating":2.3,"reviews":3.0},{"name":"PAWAN PUTRA ELECTRONICS","lat":17.2672087,"lng":78.387254,"rating":null,"reviews":null},{"name":"RAMBHA ELECTRONICS","lat":17.2622576,"lng":78.3889923,"rating":null,"reviews":null},{"name":"Hema Electric Works Hema Sound","lat":17.2637556,"lng":78.3887637,"rating":3.3,"reviews":3.0},{"name":"Rk audio systems","lat":17.2652665,"lng":78.3952286,"rating":5.0,"reviews":3.0},{"name":"Authorized Samsung Mobiles Stores - Shamshabad, Hyderabad","lat":17.2638612,"lng":78.3896716,"rating":null,"reviews":null},{"name":"BRIGHT KITCHENS HINDWARE CHIMNEY SHOWROOM","lat":17.2635518,"lng":78.3816687,"rating":4.9,"reviews":27.0},{"name":"Madavteja gas world","lat":17.2634666,"lng":78.387691,"rating":null,"reviews":null},{"name":"MA AUDIOS","lat":17.2605482,"lng":78.3958715,"rating":null,"reviews":null},{"name":"Diamond Online Services","lat":17.2609872,"lng":78.3857064,"rating":4.5,"reviews":2.0},{"name":"Jaquar Lighting Dealer - Samshabad, Hyderabad I Indoor, Outdoor, Landscape & Decorative Lighting","lat":17.2725897,"lng":78.399097,"rating":5.0,"reviews":3.0},{"name":"A C Technician, Hadi Air Conditioner","lat":17.2600735,"lng":78.3957783,"rating":3.5,"reviews":8.0},{"name":"Reliance SMART Superstore","lat":17.2627479,"lng":78.3859433,"rating":3.7,"reviews":2010.0},{"name":"Vijaya Durga Grand Bazar","lat":17.2628887,"lng":78.384194,"rating":4.1,"reviews":1485.0},{"name":"New Royal Battery","lat":17.2635734,"lng":78.3901837,"rating":4.3,"reviews":15.0},{"name":"Rajesh Auto Electrical Works","lat":17.2605435,"lng":78.3852831,"rating":3.9,"reviews":15.0},{"name":"Appa Hardware","lat":17.2623396,"lng":78.388593,"rating":4.3,"reviews":21.0},{"name":"OLA Electric Store - Electric Scooter Showroom in Shamshabad, Hyderabad","lat":17.2605042,"lng":78.3851981,"rating":3.7,"reviews":47.0},{"name":"Sri Ganesh Hardware","lat":17.264102,"lng":78.389944,"rating":4.8,"reviews":11.0},{"name":"AZEEM ELECTRICAL AND ENGINEERING WORKS","lat":17.2635768,"lng":78.3893172,"rating":4.9,"reviews":8.0},{"name":"Tormac pumps, SRI VENDIKONDA SIDDESHWARA ENTERPRISE","lat":17.2649741,"lng":78.3725799,"rating":5.0,"reviews":3.0},{"name":"Global Mobile's","lat":17.2614115,"lng":78.3877922,"rating":4.9,"reviews":65.0},{"name":"Vijetha Supermarket | Shamshabad","lat":17.2630539,"lng":78.384809,"rating":4.0,"reviews":1060.0},{"name":"MAXXIS CAR DECORS","lat":17.2669418,"lng":78.3936428,"rating":4.4,"reviews":63.0},{"name":"AI Solutions Laptop & Computer Repair","lat":17.2620802,"lng":78.3875464,"rating":5.0,"reviews":34.0},{"name":"Eazy Everything Mobile & Laptop Service Center","lat":17.2607891,"lng":78.3903113,"rating":4.9,"reviews":100.0},{"name":"Select Mobiles - Shamshabad | Best Mobile Phone Store","lat":17.2611617,"lng":78.3862794,"rating":4.9,"reviews":775.0},{"name":"SAI BALAJI COMPUTER EMBROIDERY","lat":17.2622226,"lng":78.3826357,"rating":4.8,"reviews":4.0},{"name":"C-Link Technologies","lat":17.2631652,"lng":78.382073,"rating":3.1,"reviews":8.0},{"name":"Bhavani Stores Stationary And Assam Tea","lat":17.2616156,"lng":78.3837986,"rating":4.4,"reviews":25.0},{"name":"Solus Computers & Mobiles","lat":17.2620951,"lng":78.3885409,"rating":5.0,"reviews":1.0},{"name":"Sahasra mobiles & accessories","lat":17.2637718,"lng":78.38955,"rating":5.0,"reviews":19.0},{"name":"Vikram Mobiles","lat":17.2630238,"lng":78.388371,"rating":5.0,"reviews":306.0},{"name":"Happi Mobiles Shamshabad","lat":17.2620474,"lng":78.388353,"rating":4.8,"reviews":698.0},{"name":"Best Mobiles","lat":17.261433,"lng":78.3866435,"rating":5.0,"reviews":4.0},{"name":"Techno Mobiles","lat":17.2632983,"lng":78.3898581,"rating":4.9,"reviews":7.0},{"name":"Strawberry mobiles shoppe","lat":17.2603994,"lng":78.3863626,"rating":5.0,"reviews":1.0},{"name":"Sri Sai Maruthi Mobiles","lat":17.2628445,"lng":78.3875175,"rating":5.0,"reviews":1.0},{"name":"ZK MOBILES WHOLESALE & RETAIL","lat":17.262615,"lng":78.3872261,"rating":5.0,"reviews":8.0},{"name":"VIVO Exclusive Store","lat":17.260442,"lng":78.38606,"rating":3.9,"reviews":11.0},{"name":"ELECTRONS MOBILE","lat":17.2613618,"lng":78.3859592,"rating":5.0,"reviews":12.0},{"name":"FK Mobiles","lat":17.261182,"lng":78.3898679,"rating":5.0,"reviews":1.0},{"name":"MOBILE PLANET SALES & SERVICES","lat":17.2619605,"lng":78.3882783,"rating":5.0,"reviews":7.0},{"name":"BS Mobiles","lat":17.2614799,"lng":78.3885083,"rating":null,"reviews":null},{"name":"Adnan Mobile","lat":17.2621462,"lng":78.3875817,"rating":5.0,"reviews":1.0},{"name":"Shadab Mobiles","lat":17.2615661,"lng":78.3879597,"rating":3.0,"reviews":1.0},{"name":"Sree mobiles and Accesories","lat":17.260833,"lng":78.386529,"rating":5.0,"reviews":1.0},{"name":"Sri Veerabhadra Kiranam & General Store","lat":17.2623675,"lng":78.3870054,"rating":4.5,"reviews":14.0},{"name":"H N Mobiles","lat":17.2619098,"lng":78.3886624,"rating":null,"reviews":null},{"name":"Flower Shop Bouquet Dyna","lat":17.2612819,"lng":78.3876875,"rating":4.6,"reviews":92.0},{"name":"Cell Lovers Mobiles","lat":17.2614975,"lng":78.3883285,"rating":null,"reviews":null},{"name":"Sri Balaji Papalal Mithai Bhandar","lat":17.2609718,"lng":78.3897183,"rating":4.5,"reviews":28.0},{"name":"Time World Watch & Mobile","lat":17.2621005,"lng":78.3885459,"rating":4.4,"reviews":5.0},{"name":"PATEL MOBILE","lat":17.2630075,"lng":78.3883651,"rating":5.0,"reviews":2.0},{"name":"Royal mobile's","lat":17.2630002,"lng":78.389654,"rating":null,"reviews":null},{"name":"MS Steels & Hardware","lat":17.2651704,"lng":78.3743058,"rating":3.8,"reviews":8.0},{"name":"Akram Mobiles","lat":17.2616089,"lng":78.388451,"rating":4.0,"reviews":6.0},{"name":"Reliance Cloth Store","lat":17.2599248,"lng":78.3945356,"rating":4.0,"reviews":3.0},{"name":"LITTLE TWINS BABY STORE","lat":17.2634022,"lng":78.3814997,"rating":5.0,"reviews":10.0},{"name":"Abhinav kirana and general store","lat":17.2644185,"lng":78.376192,"rating":4.1,"reviews":7.0},{"name":"Anand Cloth Store","lat":17.2614061,"lng":78.3892417,"rating":4.3,"reviews":14.0},{"name":"LAKSHMI SKANDHA KIRANA GENERAL STORE AND XEROX(MAHESH ANNA)","lat":17.2753095,"lng":78.3774109,"rating":5.0,"reviews":1.0},{"name":"Ajfan Dates and nuts Shamshabad","lat":17.2443125,"lng":78.3703125,"rating":4.6,"reviews":76.0},{"name":"Janatha mobiles sales and service","lat":17.2615811,"lng":78.3838228,"rating":null,"reviews":null},{"name":"Pranathi Cloth Store & Readymades","lat":17.2614466,"lng":78.389142,"rating":5.0,"reviews":1.0},{"name":"Smoken monkey men\u2019s clothing store","lat":17.2628027,"lng":78.3839391,"rating":5.0,"reviews":12.0},{"name":"SRI SAI WINES","lat":17.2652381,"lng":78.3924903,"rating":4.0,"reviews":201.0},{"name":"RANA KIRANA GENRAL STORE","lat":17.2626799,"lng":78.3856937,"rating":5.0,"reviews":4.0},{"name":"Laxmi Sales Corporation","lat":17.2617677,"lng":78.3885461,"rating":5.0,"reviews":2.0},{"name":"Ap Mobiles","lat":17.261644,"lng":78.3882108,"rating":null,"reviews":null},{"name":"AUM Mobile","lat":17.2629742,"lng":78.3861659,"rating":null,"reviews":null},{"name":"Sri Balaji Electricals","lat":17.2504415,"lng":78.4521568,"rating":null,"reviews":null},{"name":"New Nisar Auto Electrical & Battery","lat":17.2617719,"lng":78.4498202,"rating":5.0,"reviews":1.0},{"name":"A TO Z ELECTRONIC","lat":17.2722673,"lng":78.4719494,"rating":4.9,"reviews":41.0},{"name":"Zubaidi Electrical","lat":17.2719118,"lng":78.4732267,"rating":4.7,"reviews":3.0},{"name":"S.K.Sound","lat":17.2720745,"lng":78.4734131,"rating":5.0,"reviews":1.0},{"name":"Shareef nager","lat":17.2799055,"lng":78.4989415,"rating":4.3,"reviews":18.0},{"name":"Takdeer Tent House","lat":17.2793808,"lng":78.4961577,"rating":5.0,"reviews":2.0},{"name":"SARA GROCERY STORE","lat":17.2765529,"lng":78.4936471,"rating":5.0,"reviews":2.0},{"name":"NPVAG PAVAN MOBILE AN ONLINE SERVICE","lat":17.2729569,"lng":78.5081728,"rating":5.0,"reviews":3.0},{"name":"Sri Venkateshwara Medical & General Stores","lat":17.2724207,"lng":78.5079411,"rating":5.0,"reviews":1.0},{"name":"Al-Basravi Medical & General store","lat":17.2736681,"lng":78.5074719,"rating":5.0,"reviews":2.0},{"name":"Sri Mallikarjuna Electronics &water purifier","lat":17.27318,"lng":78.5391942,"rating":4.0,"reviews":4.0},{"name":"Nav durga traders electricals -sanitary wholesalers , repairing","lat":17.2753669,"lng":78.5386222,"rating":5.0,"reviews":2.0},{"name":"vinayaka mobiles","lat":17.2740359,"lng":78.5393505,"rating":null,"reviews":null},{"name":"Kalka Mart","lat":17.2736409,"lng":78.5391598,"rating":5.0,"reviews":3.0},{"name":"SRI KRISHNA SUPERMARKET","lat":17.2768814,"lng":78.5375301,"rating":4.0,"reviews":70.0},{"name":"GH Computer Embroidery works","lat":17.2777175,"lng":78.554145,"rating":5.0,"reviews":5.0},{"name":"Sri Balaji Bakery","lat":17.2743766,"lng":78.5391469,"rating":3.8,"reviews":40.0},{"name":"Electrical supply","lat":17.2726217,"lng":78.5659054,"rating":null,"reviews":null},{"name":"BALAJI ELECTRICALS","lat":17.2730807,"lng":78.5863978,"rating":5.0,"reviews":1.0},{"name":"D. S. Reddy Electronics And Accessories","lat":17.2714664,"lng":78.5896367,"rating":5.0,"reviews":1.0},{"name":"Rama Computers","lat":17.2732373,"lng":78.5883926,"rating":5.0,"reviews":41.0},{"name":"RS CAR DECORS","lat":17.2619229,"lng":78.5862079,"rating":5.0,"reviews":6.0},{"name":"VK Power Tools And Electricals","lat":17.2734179,"lng":78.5883326,"rating":5.0,"reviews":1.0},{"name":"Sri Mahalakshmi Electricals And Hardware","lat":17.2618712,"lng":78.5982936,"rating":5.0,"reviews":1.0},{"name":"Laxmi Batteries Exide","lat":17.2713051,"lng":78.5891576,"rating":4.9,"reviews":63.0},{"name":"Sri Sai Electronics","lat":17.2743767,"lng":78.5888057,"rating":3.5,"reviews":2.0},{"name":"SRI RAGHAVENDRA TRADERS","lat":17.2729912,"lng":78.5850071,"rating":4.8,"reviews":13.0},{"name":"Srinivasa Electricals & Sanitary","lat":17.274987,"lng":78.5896433,"rating":5.0,"reviews":7.0},{"name":"Mathaji Electricals Hardware","lat":17.2612014,"lng":78.5807937,"rating":5.0,"reviews":2.0},{"name":"DHANALAXMI HOME APPLIANCES GIFTS & PLASTICS","lat":17.2731343,"lng":78.5880291,"rating":4.2,"reviews":18.0},{"name":"KPN Fresh - Turkayamjal","lat":17.26145,"lng":78.586017,"rating":4.8,"reviews":453.0},{"name":"KAFF APPLIANCES STORE","lat":17.2760038,"lng":78.5879295,"rating":null,"reviews":null},{"name":"V.Hanuman Electrical,Hardware,Plywood And Sanitary.","lat":17.2765112,"lng":78.5876777,"rating":4.2,"reviews":21.0},{"name":"HYDERABAD BATTERYS AND AUTO ELECTRICAL WORKS","lat":17.2789405,"lng":78.5874492,"rating":4.7,"reviews":15.0},{"name":"Sri Ganesh Electrical & Sanitary","lat":17.2678881,"lng":78.5898278,"rating":5.0,"reviews":1.0},{"name":"DURGA ELECTRICAL CO.","lat":17.2796598,"lng":78.5869026,"rating":5.0,"reviews":1.0},{"name":"VIGNESHWARA ELECTRICALS & HARDWARE","lat":17.2728795,"lng":78.5839704,"rating":5.0,"reviews":1.0},{"name":"Swamy enterprises","lat":17.2762813,"lng":78.5877968,"rating":1.0,"reviews":1.0},{"name":"STATE AUTO ELECTRICALS BATTERIES & CAR DECORS .SALES AND SERVICE","lat":17.2609243,"lng":78.5858528,"rating":5.0,"reviews":37.0},{"name":"Hoarding, brochure, flexi designer","lat":17.265321,"lng":78.590083,"rating":4.9,"reviews":11.0},{"name":"sri skynet solutions","lat":17.2731112,"lng":78.5872018,"rating":4.8,"reviews":71.0},{"name":"Sri Vinayaka computer's","lat":17.2674406,"lng":78.5911812,"rating":null,"reviews":null},{"name":"Zyngram","lat":17.2721865,"lng":78.589002,"rating":5.0,"reviews":3.0},{"name":"Balaji Mobiles","lat":17.2741115,"lng":78.5885175,"rating":3.9,"reviews":7.0},{"name":"Needs Mobile Point","lat":17.2733833,"lng":78.5887206,"rating":4.3,"reviews":16.0},{"name":"Srinivasa kiranam","lat":17.2715181,"lng":78.5896224,"rating":4.2,"reviews":153.0},{"name":"Bhavani mobile world \ud83d\udcf1 turkayamjal","lat":17.2751909,"lng":78.5873634,"rating":1.0,"reviews":1.0},{"name":"SS MOBILES","lat":17.2738933,"lng":78.5889756,"rating":5.0,"reviews":1.0},{"name":"New Omkar Stationery","lat":17.2729223,"lng":78.5870747,"rating":5.0,"reviews":2.0},{"name":"VIGNESHWARA STEELS","lat":17.2651691,"lng":78.5881108,"rating":4.1,"reviews":28.0},{"name":"Lucky Mobile Point","lat":17.2732182,"lng":78.5886948,"rating":null,"reviews":null},{"name":"Sri laxmi ganapathi kirana general store","lat":17.262194,"lng":78.5876195,"rating":4.4,"reviews":9.0},{"name":"Ragavendra enterprises","lat":17.2706351,"lng":78.5898963,"rating":4.5,"reviews":50.0},{"name":"Reliance Fresh","lat":17.2761485,"lng":78.5878319,"rating":3.8,"reviews":381.0},{"name":"Centuary Mattresses Store - Sri Surya Sai Nagar","lat":17.2794676,"lng":78.5870837,"rating":5.0,"reviews":2.0},{"name":"Mathaji Electricals And Sanitary Hardware","lat":17.2892351,"lng":78.3259029,"rating":4.1,"reviews":10.0},{"name":"GUNTI EMMANUEL NANI ENTERPRISES","lat":17.2894578,"lng":78.366686,"rating":5.0,"reviews":1.0},{"name":"JAI HANUMAN KIRANA GENERAL STORE & STATIONERY INTERNET XEROX","lat":17.287061,"lng":78.3669574,"rating":4.8,"reviews":9.0},{"name":"Mobile World 2","lat":17.2628931,"lng":78.3869683,"rating":null,"reviews":null},{"name":"Metro Cash and Carry","lat":17.2939846,"lng":78.4168013,"rating":4.1,"reviews":8647.0},{"name":"SUNRISE OVEN EQUIPMENT","lat":17.2999177,"lng":78.4189483,"rating":3.8,"reviews":24.0},{"name":"Shahbaz Auto Electrical","lat":17.2996832,"lng":78.4189947,"rating":null,"reviews":null},{"name":"A.K.R Bros Mobile Store","lat":17.2824072,"lng":78.4115415,"rating":null,"reviews":null},{"name":"S M Mobiles","lat":17.2976715,"lng":78.4183301,"rating":3.7,"reviews":3.0},{"name":"SRI SHYAM MOBILES ELECTRONICS","lat":17.2953223,"lng":78.4409118,"rating":5.0,"reviews":2.0},{"name":"SHREE RAM MOBILE AND ELECTRONICS","lat":17.2958165,"lng":78.4406438,"rating":3.0,"reviews":2.0},{"name":"Mataji Electrical Hardware","lat":17.295376,"lng":78.4408342,"rating":null,"reviews":null},{"name":"Aziz Khan & Sons Tools Hardware Sanitary Electrical Paint","lat":17.288395,"lng":78.425936,"rating":null,"reviews":null},{"name":"Kamal Traders","lat":17.2930158,"lng":78.441662,"rating":3.8,"reviews":6.0},{"name":"Maha laxmi electrical & hardware","lat":17.2977241,"lng":78.4502665,"rating":5.0,"reviews":4.0},{"name":"Star M P Electronics","lat":17.2936622,"lng":78.4416019,"rating":5.0,"reviews":1.0},{"name":"Jai bhavani led lights , electricals &hardware","lat":17.293206,"lng":78.4417026,"rating":null,"reviews":null},{"name":"SJ TRADING COMPANY","lat":17.2941923,"lng":78.4500398,"rating":4.2,"reviews":22.0},{"name":"A1 Computer And Mobile Repair Photo Shop","lat":17.2828018,"lng":78.4509574,"rating":5.0,"reviews":2.0},{"name":"Faiz Mobile Shop","lat":17.28406,"lng":78.4512812,"rating":3.5,"reviews":2.0},{"name":"A One Mobile Shop","lat":17.3001536,"lng":78.4342822,"rating":5.0,"reviews":1.0},{"name":"Old HITECH ELECTRICALS","lat":17.2954463,"lng":78.4778895,"rating":4.6,"reviews":10.0},{"name":"Dth services new connections","lat":17.2923714,"lng":78.4809811,"rating":4.6,"reviews":10.0},{"name":"Syed Electricals","lat":17.2959028,"lng":78.480692,"rating":5.0,"reviews":2.0},{"name":"Aslam Electrical Wholesaler & retail","lat":17.2846932,"lng":78.4717887,"rating":5.0,"reviews":5.0},{"name":"Hitech Electronics","lat":17.2924191,"lng":78.4666394,"rating":4.4,"reviews":5.0},{"name":"RASHEDI XEROX","lat":17.2968158,"lng":78.4779768,"rating":3.7,"reviews":3.0},{"name":"E Vally computers","lat":17.2942496,"lng":78.4783036,"rating":5.0,"reviews":1.0},{"name":"E - BIT COMPUTERS","lat":17.2971007,"lng":78.4788535,"rating":4.3,"reviews":6.0},{"name":"Sana Electronics & Electricals","lat":17.2909335,"lng":78.4688048,"rating":null,"reviews":null},{"name":"Zulfeqar Electrical","lat":17.294509,"lng":78.4777383,"rating":4.0,"reviews":2.0},{"name":"S S ENTERPRISES HOME APPLIANCES","lat":17.2982375,"lng":78.4689264,"rating":null,"reviews":null},{"name":"BABA ELECTRICAL","lat":17.2862293,"lng":78.47201,"rating":null,"reviews":null},{"name":"RAMZ EYE CCTV SECURITY SYSTEMS & ELECTRONICS","lat":17.294659,"lng":78.4767435,"rating":5.0,"reviews":22.0},{"name":"Yahiya Sound","lat":17.2941339,"lng":78.4761976,"rating":4.5,"reviews":8.0},{"name":"M.A.Wajeed Electronics","lat":17.2959378,"lng":78.4796062,"rating":4.0,"reviews":9.0},{"name":"Zaker Sound","lat":17.2959178,"lng":78.4803939,"rating":5.0,"reviews":1.0},{"name":"Royal Sound","lat":17.2872665,"lng":78.4506504,"rating":null,"reviews":null},{"name":"H.H ELECTRICALS","lat":17.2960204,"lng":78.4809057,"rating":null,"reviews":null},{"name":"New Baba Nagar ek number gali","lat":17.2839237,"lng":78.4720768,"rating":4.3,"reviews":34.0},{"name":"Standard Computers","lat":17.2944258,"lng":78.4761308,"rating":4.5,"reviews":11.0},{"name":"Danish mobile shop","lat":17.2838193,"lng":78.4740898,"rating":5.0,"reviews":28.0},{"name":"Arshad Mobiles","lat":17.2911622,"lng":78.4734504,"rating":5.0,"reviews":10.0},{"name":"K.B MOBILE","lat":17.2959179,"lng":78.4803931,"rating":5.0,"reviews":3.0},{"name":"Rayyan Mobile and Stationary","lat":17.2965588,"lng":78.4776448,"rating":4.0,"reviews":9.0},{"name":"Royal Mobile Shop","lat":17.2908852,"lng":78.4677,"rating":3.5,"reviews":2.0},{"name":"Mobicare Solutions","lat":17.2960151,"lng":78.478605,"rating":5.0,"reviews":1.0},{"name":"Bawazeer Mobiles","lat":17.2971959,"lng":78.4787752,"rating":null,"reviews":null},{"name":"K B MOBILE","lat":17.2929758,"lng":78.4736517,"rating":5.0,"reviews":5.0},{"name":"Nawaz Mobile","lat":17.2946192,"lng":78.4728738,"rating":5.0,"reviews":4.0},{"name":"O.K Mobile Shop","lat":17.2945193,"lng":78.4724235,"rating":5.0,"reviews":2.0},{"name":"Mk mobile reapir and all accessories","lat":17.2911217,"lng":78.4680063,"rating":null,"reviews":null},{"name":"Faisal Mobile Point","lat":17.2917391,"lng":78.4734836,"rating":null,"reviews":null},{"name":"Khalid awalqi 99 Store All in One","lat":17.2936727,"lng":78.4743224,"rating":4.8,"reviews":26.0},{"name":"Awalqi Mobile Store","lat":17.2969313,"lng":78.4770525,"rating":1.0,"reviews":1.0},{"name":"S V FIBERNET","lat":17.2904001,"lng":78.4965189,"rating":5.0,"reviews":32.0},{"name":"Limra Electronics","lat":17.2916165,"lng":78.4968551,"rating":5.0,"reviews":6.0},{"name":"Maa Ambica traders","lat":17.2887458,"lng":78.4981035,"rating":4.6,"reviews":31.0},{"name":"Kaveri Hardware & Electrical","lat":17.2917329,"lng":78.4995642,"rating":5.0,"reviews":1.0},{"name":"SSONLINESERVICES OSMAN NAGAR","lat":17.2962271,"lng":78.4850696,"rating":null,"reviews":null},{"name":"Zam Zam mobiles & accessories","lat":17.2910613,"lng":78.4968139,"rating":5.0,"reviews":6.0},{"name":"Tawakkal Mobiles and stationery","lat":17.2924997,"lng":78.4739118,"rating":4.0,"reviews":11.0},{"name":"Al,Sami Mobiles","lat":17.2960896,"lng":78.4817138,"rating":2.5,"reviews":6.0},{"name":"SN mobile Shop","lat":17.291102,"lng":78.4980206,"rating":3.0,"reviews":2.0},{"name":"Bagwan Multi Services Mobiles Shop","lat":17.2962359,"lng":78.4855107,"rating":5.0,"reviews":1.0},{"name":"M.S. ELECTRICAL","lat":17.2916021,"lng":78.4995044,"rating":3.0,"reviews":1.0},{"name":"Durga electrical,paint,sanitary&hardwere","lat":17.2953767,"lng":78.5013751,"rating":5.0,"reviews":1.0},{"name":"Choudhary electricals hardware Paints sanitary","lat":17.2870904,"lng":78.5368259,"rating":5.0,"reviews":4.0},{"name":"CSC DIGITAL SEVA& S R COMMUNICATION","lat":17.2983057,"lng":78.5354522,"rating":5.0,"reviews":2.0},{"name":"AR Electronics","lat":17.2847573,"lng":78.5371335,"rating":5.0,"reviews":36.0},{"name":"Mahalaxmi Marketing Eletricals And Hardware","lat":17.2826699,"lng":78.5373086,"rating":4.8,"reviews":8.0},{"name":"Star Electronics Services","lat":17.294158,"lng":78.5346231,"rating":5.0,"reviews":11.0},{"name":"RAJLAXMI ENTERPRISES","lat":17.2958153,"lng":78.5334585,"rating":4.9,"reviews":49.0},{"name":"Sri Santosh electricals","lat":17.2854312,"lng":78.5368803,"rating":5.0,"reviews":1.0},{"name":"Suresh LED & LCD TV Services","lat":17.2817665,"lng":78.5345948,"rating":4.2,"reviews":5.0},{"name":"JK Mobiles","lat":17.2930868,"lng":78.5352076,"rating":null,"reviews":null},{"name":"SRI MALLIKARJUNA MOBILES","lat":17.2974192,"lng":78.5323254,"rating":null,"reviews":null},{"name":"Surya electronics","lat":17.2810852,"lng":78.5573586,"rating":4.8,"reviews":4.0},{"name":"SMART RETAIL","lat":17.2956235,"lng":78.5335464,"rating":4.5,"reviews":17.0},{"name":"Bhavani Electricals Sanitary & Hardware","lat":17.299986,"lng":78.5501698,"rating":null,"reviews":null},{"name":"Krithik computers","lat":17.2943741,"lng":78.5655868,"rating":5.0,"reviews":2.0},{"name":"Krishna Electrical & Hardware","lat":17.2918826,"lng":78.5637077,"rating":null,"reviews":null},{"name":"Vijayalaxmi Electricals","lat":17.2963743,"lng":78.5672575,"rating":null,"reviews":null},{"name":"S AUDIO","lat":17.2639603,"lng":78.581059,"rating":4.9,"reviews":9.0},{"name":"Excitel Broadband","lat":17.2658802,"lng":78.5482375,"rating":null,"reviews":null},{"name":"YERRA VINOD KUMAR HOME'S","lat":17.2702451,"lng":78.547197,"rating":null,"reviews":null},{"name":"OnliSolve Digi Solutions - CSC Center & PAN Card Services","lat":17.278637,"lng":78.5571028,"rating":null,"reviews":null},{"name":"Sri Sai Electrical, Hardware and Sanitary","lat":17.2947075,"lng":78.56652,"rating":4.5,"reviews":6.0},{"name":"Raghavendra Batterys and auto electrical works","lat":17.2938797,"lng":78.565902,"rating":5.0,"reviews":7.0},{"name":"GVRMYHOME SOLUTIONS","lat":17.285855,"lng":78.591712,"rating":4.8,"reviews":99.0},{"name":"CELL CITY MOBILES","lat":17.3001907,"lng":78.6091388,"rating":5.0,"reviews":3.0},{"name":"sai computers and CCTV camera","lat":17.2810061,"lng":78.6383601,"rating":5.0,"reviews":1.0},{"name":"SRI LAXMI MOBILES AND COMMUNICATIONS","lat":17.2825203,"lng":78.6358613,"rating":5.0,"reviews":4.0},{"name":"ss stationery xerox","lat":17.282224,"lng":78.6360082,"rating":null,"reviews":null},{"name":"Siri mobiles","lat":17.2829613,"lng":78.6424886,"rating":5.0,"reviews":5.0},{"name":"RAMDEV ELECTRICAL","lat":17.2832459,"lng":78.6425619,"rating":5.0,"reviews":1.0},{"name":"Koheda Chai Adda","lat":17.2850412,"lng":78.6357071,"rating":4.8,"reviews":13.0},{"name":"Chai Darbar","lat":17.3103963,"lng":78.2288255,"rating":3.5,"reviews":6.0},{"name":"Digital Mobiles","lat":17.3113686,"lng":78.2477238,"rating":5.0,"reviews":4.0},{"name":"Hiramani Electronics & Mobiles Electricals","lat":17.3117972,"lng":78.4386877,"rating":3.7,"reviews":25.0},{"name":"Sai Ram Electricals & Electronics","lat":17.3112678,"lng":78.4376636,"rating":4.1,"reviews":20.0},{"name":"Salma Enterprises","lat":17.3068918,"lng":78.4284405,"rating":4.3,"reviews":12.0},{"name":"Balaji Hardwaer Wholesale And Retail Electrical,Sanitary And Paint Etc","lat":17.3014746,"lng":78.4398082,"rating":4.0,"reviews":2.0},{"name":"The Computer Store (\u0c26\u0c3f \u0c15\u0c02\u0c2a\u0c4d\u0c2f\u0c42\u0c1f\u0c30\u0c4d \u0c38\u0c4d\u0c1f\u0c4b\u0c30\u0c4d)","lat":17.3115103,"lng":78.4405353,"rating":4.5,"reviews":64.0},{"name":"GR COMPUTERS","lat":17.3194604,"lng":78.4347294,"rating":4.0,"reviews":8.0},{"name":"BBR ELECTRONICS","lat":17.3054414,"lng":78.4395437,"rating":4.8,"reviews":4.0},{"name":"Ritika Comunications","lat":17.3197806,"lng":78.4390035,"rating":5.0,"reviews":2.0},{"name":"Bhavani Photo Frames Shop and Photo studio","lat":17.3196715,"lng":78.4344675,"rating":4.7,"reviews":13.0},{"name":"LG.SONY.MI.SAMSUNG .all LED tv repair","lat":17.3107525,"lng":78.4390174,"rating":4.9,"reviews":25.0},{"name":"Janatha Electronics & Home Appliances","lat":17.310823,"lng":78.4407825,"rating":5.0,"reviews":4.0},{"name":"Ram Computers","lat":17.3119094,"lng":78.4392417,"rating":3.9,"reviews":36.0},{"name":"K. N Sounds And Electrical Works","lat":17.3195322,"lng":78.4373041,"rating":4.8,"reviews":9.0},{"name":"Nrs Dj Sounds","lat":17.3022021,"lng":78.4385547,"rating":5.0,"reviews":2.0},{"name":"Pavan Electricals","lat":17.306638,"lng":78.4285064,"rating":5.0,"reviews":4.0},{"name":"Prakash Electricals","lat":17.3178273,"lng":78.4343229,"rating":5.0,"reviews":2.0},{"name":"Bihari Electronics","lat":17.3113596,"lng":78.4378071,"rating":5.0,"reviews":1.0},{"name":"Mahalaxmi electronics and mobiles","lat":17.3122748,"lng":78.4393122,"rating":5.0,"reviews":1.0},{"name":"Deccan Horeca Solutions All Types of Kitchenware Equipments & Crockery for All HORECA Business","lat":17.3184535,"lng":78.4283486,"rating":4.8,"reviews":57.0},{"name":"Sangita Electrical And Hardware","lat":17.3169809,"lng":78.434402,"rating":5.0,"reviews":1.0},{"name":"New Bombay Electrical Spares and Hardware","lat":17.3182942,"lng":78.4342918,"rating":4.8,"reviews":24.0},{"name":"R.K. Electrical Works","lat":17.3105242,"lng":78.4389705,"rating":4.8,"reviews":13.0},{"name":"Jai Hanuman Electricals & Electronics","lat":17.3123666,"lng":78.4400897,"rating":null,"reviews":null},{"name":"Deepak Hardware","lat":17.3181735,"lng":78.4343033,"rating":4.4,"reviews":181.0},{"name":"Shradha Electrical Work And Hardware","lat":17.3166966,"lng":78.4344278,"rating":4.0,"reviews":1.0},{"name":"Shankara Buildpro - Katedan (Secunderabad) (APL Apollo, AM\/NS, JSW, Ganga, Jindal, Steel Tubes, Flats, TMT, Sheets, Roofing)","lat":17.3195525,"lng":78.4337622,"rating":4.4,"reviews":8.0},{"name":"J.S computers","lat":17.3090627,"lng":78.4406954,"rating":4.6,"reviews":13.0},{"name":"Khimaj Mobiles","lat":17.3119371,"lng":78.4390756,"rating":3.8,"reviews":24.0},{"name":"Friends Mobiles","lat":17.3106212,"lng":78.4390193,"rating":4.7,"reviews":6.0},{"name":"Jagadamba Electronics & Mobiles","lat":17.3117894,"lng":78.4388244,"rating":4.3,"reviews":14.0},{"name":"BITTU MOBILES","lat":17.3183743,"lng":78.4405793,"rating":4.7,"reviews":3.0},{"name":"SS Mobiles Sales & Services","lat":17.3024415,"lng":78.4375864,"rating":4.8,"reviews":6.0},{"name":"Aakash Mobile Store","lat":17.3121075,"lng":78.439248,"rating":5.0,"reviews":2.0},{"name":"Bhavani Mobile","lat":17.3108224,"lng":78.4387906,"rating":4.2,"reviews":12.0},{"name":"Mobile Corner","lat":17.3120583,"lng":78.4389006,"rating":3.3,"reviews":3.0},{"name":"Harsh Communication","lat":17.3115562,"lng":78.4381803,"rating":5.0,"reviews":1.0},{"name":"Haneef mobile store","lat":17.3116361,"lng":78.4389687,"rating":null,"reviews":null},{"name":"Sri Laxmi Mobiles","lat":17.3108945,"lng":78.426444,"rating":4.6,"reviews":9.0},{"name":"SVS Mobiles","lat":17.3087414,"lng":78.4343603,"rating":3.4,"reviews":5.0},{"name":"Balaji ramprasad mobile","lat":17.3113822,"lng":78.4390268,"rating":5.0,"reviews":1.0},{"name":"Jai SriRam MOBILE'S","lat":17.308536,"lng":78.4395056,"rating":4.0,"reviews":4.0},{"name":"RAMDEV ENTERPRISE MOBILES & ELECTRONICES","lat":17.311486,"lng":78.4389944,"rating":5.0,"reviews":1.0},{"name":"VIJAY SALES - MAILARDEVPALLY","lat":17.3150767,"lng":78.4471524,"rating":4.9,"reviews":2003.0},{"name":"Destiny Solutions","lat":17.3183757,"lng":78.4502755,"rating":4.7,"reviews":18.0},{"name":"Kawish Electronics","lat":17.3140061,"lng":78.4577768,"rating":4.9,"reviews":8.0},{"name":"Sri Balaji Sound mailardevpally","lat":17.3145721,"lng":78.4489626,"rating":4.3,"reviews":6.0},{"name":"Sri Durga Electricals","lat":17.3124863,"lng":78.4413158,"rating":4.7,"reviews":3.0},{"name":"G K Electricals","lat":17.316495,"lng":78.4492343,"rating":4.5,"reviews":4.0},{"name":"Hanuman Electricals Paints & Sanitary","lat":17.3134936,"lng":78.4419757,"rating":5.0,"reviews":2.0},{"name":"MAS Hardware & Electrical","lat":17.3088817,"lng":78.4493965,"rating":5.0,"reviews":3.0},{"name":"Sri Gayatri Marketing (Electrical goods store)","lat":17.3124142,"lng":78.4413351,"rating":5.0,"reviews":2.0},{"name":"MSA HARDWARE","lat":17.3151485,"lng":78.457351,"rating":5.0,"reviews":30.0},{"name":"JAIN AUTOMOBILES","lat":17.3196916,"lng":78.435108,"rating":5.0,"reviews":12.0},{"name":"Power Mak Industries LLP","lat":17.3169704,"lng":78.4307021,"rating":4.3,"reviews":27.0},{"name":"Mobiles","lat":17.309225,"lng":78.4278328,"rating":1.0,"reviews":1.0},{"name":"S.K. COMPUTERS","lat":17.2963883,"lng":78.4457216,"rating":null,"reviews":null},{"name":"New RS mobile sales and services","lat":17.3145817,"lng":78.4489431,"rating":5.0,"reviews":13.0},{"name":"AM Mobile's","lat":17.3190924,"lng":78.4506105,"rating":null,"reviews":null},{"name":"JBK ENTERPRISES.","lat":17.319486,"lng":78.4443503,"rating":4.7,"reviews":14.0},{"name":"House Point Electrical & Hardware","lat":17.3010533,"lng":78.4638066,"rating":5.0,"reviews":7.0},{"name":"MS Computers & Sports","lat":17.3040728,"lng":78.4743741,"rating":4.8,"reviews":6.0},{"name":"Indian Pumps And Borewells","lat":17.3017125,"lng":78.4757909,"rating":4.1,"reviews":7.0},{"name":"omer bike point","lat":17.3137023,"lng":78.4644223,"rating":5.0,"reviews":3.0},{"name":"Evally laptop & computers sales & service","lat":17.3154608,"lng":78.4651714,"rating":5.0,"reviews":3.0},{"name":"M&A Computer & Laptop Repair And Chip Level","lat":17.3183506,"lng":78.4616592,"rating":4.7,"reviews":168.0},{"name":"R.F car accessories","lat":17.3051024,"lng":78.4742924,"rating":1.0,"reviews":1.0},{"name":"Sri Ramdev Mobiles & Electronics","lat":17.3160875,"lng":78.4485318,"rating":null,"reviews":null},{"name":"Bismillah Electronic Scales Sales And Services","lat":17.3023727,"lng":78.4753703,"rating":5.0,"reviews":1.0},{"name":"M.M Digital Photo Studio & CSC Online Service","lat":17.3052754,"lng":78.4689674,"rating":4.0,"reviews":12.0},{"name":"S S Watch And Mobile Sale And Service","lat":17.3138759,"lng":78.4626633,"rating":5.0,"reviews":3.0},{"name":"S M Cooler Manufacturers Wholesale And Retail","lat":17.3057868,"lng":78.4744193,"rating":5.0,"reviews":2.0},{"name":"Srikanth Digital Studio","lat":17.3151971,"lng":78.4706895,"rating":4.6,"reviews":5.0},{"name":"CCTV CAMERA (MM security solutions)","lat":17.3074302,"lng":78.4634429,"rating":4.9,"reviews":38.0},{"name":"99 Air Cool","lat":17.3154261,"lng":78.4428769,"rating":4.1,"reviews":24.0},{"name":"S K Mahboob Electronic Shop","lat":17.3111216,"lng":78.4632083,"rating":4.0,"reviews":1.0},{"name":"Royal Hardware & Electrical Sanitary Goods","lat":17.3149204,"lng":78.4650871,"rating":4.4,"reviews":15.0},{"name":"Tawakkal hardware & electrical","lat":17.3126478,"lng":78.4628138,"rating":5.0,"reviews":2.0},{"name":"M.S. Electricials Hardware & Sanitary","lat":17.3084328,"lng":78.4633956,"rating":5.0,"reviews":10.0},{"name":"Metro Electricals","lat":17.3066895,"lng":78.468861,"rating":5.0,"reviews":7.0},{"name":"Rasheed Electrical Work","lat":17.3014491,"lng":78.4758217,"rating":5.0,"reviews":1.0},{"name":"Shalimar borewell","lat":17.3024794,"lng":78.469792,"rating":5.0,"reviews":1.0},{"name":"J B Hardware Electrical And Paints","lat":17.3019015,"lng":78.4636407,"rating":5.0,"reviews":3.0},{"name":"Rahman Electrical","lat":17.3127297,"lng":78.462713,"rating":null,"reviews":null},{"name":"Modern electrical","lat":17.3006928,"lng":78.4755613,"rating":5.0,"reviews":1.0},{"name":"M. S. Electricals","lat":17.3149906,"lng":78.4651664,"rating":null,"reviews":null},{"name":"Great White Electricals","lat":17.3046651,"lng":78.4742499,"rating":null,"reviews":null},{"name":"Hakeem Electrical","lat":17.312728,"lng":78.4627131,"rating":1.0,"reviews":1.0},{"name":"Future Tech Mobile Accessories, Sales & Service","lat":17.3182195,"lng":78.4683357,"rating":4.5,"reviews":2.0},{"name":"Subhana Mobiles","lat":17.3023413,"lng":78.4693728,"rating":4.2,"reviews":10.0},{"name":"New S S Mobiles","lat":17.3142507,"lng":78.4786471,"rating":4.6,"reviews":17.0},{"name":"Al Noor Mobiles","lat":17.3075594,"lng":78.4704724,"rating":5.0,"reviews":6.0},{"name":"PRINCE MOBILES","lat":17.3158076,"lng":78.4670857,"rating":4.0,"reviews":10.0},{"name":"HS MOBILE HUB","lat":17.3152579,"lng":78.4657032,"rating":4.7,"reviews":3.0},{"name":"sss mobile","lat":17.30043,"lng":78.4637631,"rating":5.0,"reviews":11.0},{"name":"KHAN,MOBILE,S,AND ACCESSORIES","lat":17.3150733,"lng":78.476882,"rating":null,"reviews":null},{"name":"R B Mobile Stationery & Online Service","lat":17.3018043,"lng":78.4643043,"rating":5.0,"reviews":5.0},{"name":"Adnan Mobiles Sale Service Shop","lat":17.3181129,"lng":78.4665339,"rating":4.0,"reviews":4.0},{"name":"Metro Electronics","lat":17.3164062,"lng":78.495172,"rating":5.0,"reviews":2.0},{"name":"Al Saud Electronics","lat":17.3144206,"lng":78.4960694,"rating":5.0,"reviews":2.0},{"name":"Cctv camera shop","lat":17.3119192,"lng":78.4944619,"rating":4.0,"reviews":8.0},{"name":"Omer Sound & Nayeem Almas","lat":17.3117182,"lng":78.4870068,"rating":4.2,"reviews":5.0},{"name":"MAS ELECTRICALS","lat":17.3125521,"lng":78.4862398,"rating":4.0,"reviews":5.0},{"name":"Zain Hardware and Electrical","lat":17.3133936,"lng":78.495071,"rating":4.0,"reviews":4.0},{"name":"OBH COMPUTERS SERVICES","lat":17.3109028,"lng":78.4825379,"rating":4.0,"reviews":3.0},{"name":"Muqarish Service Station","lat":17.3042991,"lng":78.4909042,"rating":4.5,"reviews":4.0},{"name":"Bakoban Electrical Shop","lat":17.3130043,"lng":78.4845047,"rating":null,"reviews":null},{"name":"Limra Electronics","lat":17.3105374,"lng":78.4995048,"rating":5.0,"reviews":2.0},{"name":"S.M. Electricals","lat":17.312246,"lng":78.4867604,"rating":null,"reviews":null},{"name":"Samid solution","lat":17.3149724,"lng":78.4627611,"rating":4.0,"reviews":2.0},{"name":"I.R.A.H. ELECTRICAL & REWINDING SHOP","lat":17.3028629,"lng":78.469613,"rating":null,"reviews":null},{"name":"ZAM ELECTRICAL & HARDWARE","lat":17.31225,"lng":78.4617919,"rating":null,"reviews":null},{"name":"Bismillah Electronics","lat":17.3029225,"lng":78.4658704,"rating":5.0,"reviews":2.0},{"name":"A1 Air Conditioner","lat":17.2959106,"lng":78.4804454,"rating":3.0,"reviews":2.0},{"name":"HKGN MOBILE STORE","lat":17.2972267,"lng":78.4827239,"rating":null,"reviews":null},{"name":"SB MOBILE SHOP","lat":17.312972,"lng":78.485569,"rating":3.8,"reviews":22.0},{"name":"Al Yousuf Mobile Shop","lat":17.3169268,"lng":78.4915985,"rating":4.0,"reviews":4.0},{"name":"Bismillah Communication","lat":17.3186425,"lng":78.4670547,"rating":4.5,"reviews":19.0},{"name":"Ma mobile accessories","lat":17.3186258,"lng":78.4932523,"rating":5.0,"reviews":2.0},{"name":"Kristal Mobiles","lat":17.3169118,"lng":78.4925484,"rating":5.0,"reviews":17.0},{"name":"A.M. Mobile","lat":17.3170352,"lng":78.4826848,"rating":null,"reviews":null},{"name":"GALAXY MOBILE SHOP","lat":17.3183394,"lng":78.4933432,"rating":5.0,"reviews":2.0},{"name":"Bajaj Electronics - Balapur","lat":17.3201875,"lng":78.5196533,"rating":3.6,"reviews":105.0},{"name":"Garnet Marketing Private Limited","lat":17.3168482,"lng":78.5175099,"rating":4.8,"reviews":84.0},{"name":"Sri Laxmi Computers","lat":17.3188547,"lng":78.5199903,"rating":4.8,"reviews":18.0},{"name":"MainStage MacBooks","lat":17.3038461,"lng":78.5041605,"rating":5.0,"reviews":15.0},{"name":"Sri Kanakadurga Electronics","lat":17.318406,"lng":78.5199962,"rating":4.7,"reviews":28.0},{"name":"Rithika computers","lat":17.3188392,"lng":78.5193456,"rating":5.0,"reviews":269.0},{"name":"H.R COMPUTER CCTV CAMERA INSTALLATION AND SARVESH","lat":17.309056,"lng":78.5060266,"rating":5.0,"reviews":2.0},{"name":"Vidhi Marketing (CSD Partner) for SAMSUNG ,IFB BOSCH & HP Laptops.","lat":17.3183304,"lng":78.5150392,"rating":4.1,"reviews":57.0},{"name":"SN Mart","lat":17.318586,"lng":78.5187307,"rating":3.5,"reviews":11.0},{"name":"SINDHU MOBILE'S & ELECTRONICS","lat":17.3184271,"lng":78.5185846,"rating":5.0,"reviews":3.0},{"name":"Pigeon Exclusive Store - Balapur, Hyderabad | Chimneys, Hobs, Cast Iron Cookware & More","lat":17.3183853,"lng":78.5185356,"rating":5.0,"reviews":178.0},{"name":"Sri Balaji shubam home appliance and plastics","lat":17.3190579,"lng":78.5208902,"rating":3.0,"reviews":3.0},{"name":"ELICA & WHIRLPOOL CHIMNEY SHOWROOM VIJAYA ENTERPRISES","lat":17.318396,"lng":78.5188,"rating":4.9,"reviews":13.0},{"name":"Mh electrical hardware and sanitary","lat":17.3196658,"lng":78.5188936,"rating":5.0,"reviews":5.0},{"name":"Mukesh Electrical And Sanitray And Paints And Hardware","lat":17.3170438,"lng":78.5176232,"rating":null,"reviews":null},{"name":"Havells Authorised Partner - Alsafa Trading","lat":17.3201597,"lng":78.4920141,"rating":5.0,"reviews":1.0},{"name":"REALTECH COMPUTERS","lat":17.3200698,"lng":78.5183369,"rating":4.9,"reviews":22.0},{"name":"Laxmi Prasanna Xerox Center","lat":17.3164054,"lng":78.5176247,"rating":3.0,"reviews":2.0},{"name":"Anzan Surya Mobiles","lat":17.319132,"lng":78.519076,"rating":2.2,"reviews":27.0},{"name":"Raghavendera Mobiles Mi Store","lat":17.3192255,"lng":78.5195763,"rating":5.0,"reviews":2.0},{"name":"Ajmer Mobiles Point","lat":17.3186713,"lng":78.5192074,"rating":5.0,"reviews":14.0},{"name":"Balaji Mobile World","lat":17.3191103,"lng":78.5197095,"rating":1.0,"reviews":1.0},{"name":"Authorized Samsung Mobiles Stores - Balapur, Hyderabad","lat":17.3201884,"lng":78.5196547,"rating":null,"reviews":null},{"name":"Mataji Electronics And Electrical","lat":17.3044366,"lng":78.5229628,"rating":4.0,"reviews":1.0},{"name":"A TO Z ELECTRONICS & ELECTRICAL SERVICES","lat":17.3053646,"lng":78.5248999,"rating":5.0,"reviews":4.0},{"name":"Sri manikanta borewells","lat":17.312352,"lng":78.5232635,"rating":4.6,"reviews":9.0},{"name":"LAKSHMI ELECTRONICS AND ELECTRICALS","lat":17.3068999,"lng":78.540543,"rating":5.0,"reviews":3.0},{"name":"Tata Play New Connection","lat":17.316843,"lng":78.5328591,"rating":5.0,"reviews":3.0},{"name":"POONAM MARKETING","lat":17.3069617,"lng":78.533464,"rating":5.0,"reviews":1.0},{"name":"Mohalal Home Appliances Gift Centre","lat":17.3059428,"lng":78.5253033,"rating":4.5,"reviews":2.0},{"name":"AR ELECTRONICS","lat":17.2847573,"lng":78.5371335,"rating":5.0,"reviews":77.0},{"name":"Balaji Fancy & Steel Palace","lat":17.3080577,"lng":78.5249012,"rating":5.0,"reviews":1.0},{"name":"Shri Krishna steel and plastic home appliances","lat":17.2828247,"lng":78.5375892,"rating":null,"reviews":null},{"name":"Vijaya Enterprises - Elica Showroom","lat":17.31854,"lng":78.5186713,"rating":4.9,"reviews":281.0},{"name":"Balaji Electrical Paint Sanitary & Hardware","lat":17.3116425,"lng":78.5232293,"rating":5.0,"reviews":4.0},{"name":"Kailash Electricals","lat":17.3091501,"lng":78.5246534,"rating":4.0,"reviews":1.0},{"name":"Balaji Hardware Electric Paint & Sanitary","lat":17.3117036,"lng":78.5233262,"rating":4.2,"reviews":5.0},{"name":"Ganesh electricals and hardware gurrumguda","lat":17.3083901,"lng":78.5337567,"rating":4.3,"reviews":10.0},{"name":"Ganesh electrical","lat":17.3133292,"lng":78.522792,"rating":5.0,"reviews":3.0},{"name":"Jagadamba Electrical And Hardware","lat":17.3152332,"lng":78.5335406,"rating":4.0,"reviews":4.0},{"name":"Mahalaxmi Electricals , Paints & Sanitary","lat":17.3136234,"lng":78.5332585,"rating":null,"reviews":null},{"name":"Balaji Electrical & Hardware","lat":17.3051956,"lng":78.5299807,"rating":3.0,"reviews":2.0},{"name":"Jai Mataji Electrical & Hardware","lat":17.3042334,"lng":78.5254125,"rating":2.8,"reviews":4.0},{"name":"Pavan Electrical Hardware & Sanitary","lat":17.3048397,"lng":78.5238018,"rating":null,"reviews":null},{"name":"MANGAL DEEP ELECTRICAL","lat":17.3087053,"lng":78.5250583,"rating":4.0,"reviews":4.0},{"name":"New Mahalaxmi Electrical Hardwear","lat":17.3004771,"lng":78.5276126,"rating":null,"reviews":null},{"name":"Padmavathi Electrical & Hardwear","lat":17.3080641,"lng":78.5341786,"rating":3.7,"reviews":3.0},{"name":"Reliance resQ Service Center - Sreenivasa Electronics","lat":17.3184901,"lng":78.5390221,"rating":3.5,"reviews":131.0},{"name":"Bhagavan Computers Sales & Services","lat":17.3049996,"lng":78.5243664,"rating":3.7,"reviews":3.0},{"name":"Krish computers","lat":17.3037987,"lng":78.5254052,"rating":5.0,"reviews":20.0},{"name":"SRI VENKATESH WARA INT","lat":17.3057778,"lng":78.5252499,"rating":null,"reviews":null},{"name":"Raghavendra Mobile sales and service","lat":17.3047206,"lng":78.5254882,"rating":4.9,"reviews":39.0},{"name":"Ks mobiles and stationary","lat":17.3092219,"lng":78.5329499,"rating":4.9,"reviews":25.0},{"name":"Reddy Mobile Point","lat":17.309931,"lng":78.5316209,"rating":4.5,"reviews":13.0},{"name":"Manikanta Mobiles & Xerox","lat":17.3072512,"lng":78.5257122,"rating":3.7,"reviews":63.0},{"name":"Tirumala Mobiles Sales & Services","lat":17.3092075,"lng":78.5246329,"rating":4.4,"reviews":7.0},{"name":"Raghavendra Mobile sarvice","lat":17.3154565,"lng":78.5403902,"rating":4.9,"reviews":17.0},{"name":"Sri Mobiles","lat":17.3092223,"lng":78.5330882,"rating":5.0,"reviews":1.0},{"name":"Bhavani mobile world badangpet","lat":17.3062134,"lng":78.5254791,"rating":4.0,"reviews":1.0},{"name":"Dhanlaxmi Mobile & Electronics","lat":17.305066,"lng":78.5255336,"rating":2.0,"reviews":1.0},{"name":"Golden Mobiles Repairing Center","lat":17.3133909,"lng":78.5329666,"rating":5.0,"reviews":5.0},{"name":"KNB Systems & Service","lat":17.3111454,"lng":78.5445827,"rating":4.7,"reviews":79.0},{"name":"Reddys enterprises barcodes","lat":17.315273,"lng":78.5503902,"rating":5.0,"reviews":2.0},{"name":"VU TV Authorized store","lat":17.317898,"lng":78.5548438,"rating":4.6,"reviews":22.0},{"name":"Rajalakshmi Computers & Peripherals","lat":17.3131041,"lng":78.5596525,"rating":5.0,"reviews":5.0},{"name":"Tata Play New Connection","lat":17.3125882,"lng":78.5526105,"rating":4.7,"reviews":7.0},{"name":"Bittu home appliances","lat":17.3126509,"lng":78.5525227,"rating":5.0,"reviews":5.0},{"name":"Sri Vishnu Hardware Electrical Paints& Sanitary","lat":17.3035017,"lng":78.5513364,"rating":4.2,"reviews":11.0},{"name":"Ganesh Electrical & Hardware","lat":17.315357,"lng":78.5423702,"rating":5.0,"reviews":2.0},{"name":"Krishna Electrical & Hardware","lat":17.3055622,"lng":78.5527552,"rating":4.2,"reviews":5.0},{"name":"Bhavani electrical","lat":17.3191901,"lng":78.5557487,"rating":5.0,"reviews":9.0},{"name":"Hanuman Electrical Agency","lat":17.3048514,"lng":78.5522575,"rating":4.0,"reviews":4.0},{"name":"Jyothi Electrical Sanitary Paints & Hardware","lat":17.3011074,"lng":78.5430416,"rating":5.0,"reviews":1.0},{"name":"New Mangaldeep Traders","lat":17.3088018,"lng":78.5250816,"rating":5.0,"reviews":2.0},{"name":"Ganesh Electrical Hardware & Paints","lat":17.3019971,"lng":78.550092,"rating":5.0,"reviews":1.0},{"name":"Ganesh Electrical Sanitary Hardware","lat":17.3137442,"lng":78.533259,"rating":null,"reviews":null},{"name":"Mahalaxmi Electrical Sanitary & Hardware","lat":17.3070709,"lng":78.5283175,"rating":null,"reviews":null},{"name":"Schneider electric - Hanuman Electricals","lat":17.3147026,"lng":78.5477857,"rating":null,"reviews":null},{"name":"Sri Vasavi Electrical Sales And Service","lat":17.3162783,"lng":78.5429538,"rating":5.0,"reviews":6.0},{"name":"Hisense Tv dealer","lat":17.3179303,"lng":78.5548657,"rating":4.9,"reviews":9.0},{"name":"Daikin Split and Cassette Air Conditioners Dealer- Laxmi Narasimhaa Distributors","lat":17.318015,"lng":78.5547134,"rating":5.0,"reviews":1.0},{"name":"TV super market","lat":17.303641,"lng":78.551274,"rating":4.5,"reviews":88.0},{"name":"Lucky Battery, Inverters Saheb nagar","lat":17.3181865,"lng":78.5788749,"rating":5.0,"reviews":1.0},{"name":"Sri siddi vinayaka electronic","lat":17.3177806,"lng":78.5546082,"rating":4.9,"reviews":16.0},{"name":"TCL TV Dealer - Laxmi Narasimhaa Distributors","lat":17.3178953,"lng":78.554842,"rating":4.5,"reviews":8.0},{"name":"MAHI MOBILES","lat":17.309189,"lng":78.5553324,"rating":4.6,"reviews":9.0},{"name":"Harsha mobiles","lat":17.3136481,"lng":78.5518414,"rating":4.0,"reviews":10.0},{"name":"TIRUMALA ENTERPRISES","lat":17.3103132,"lng":78.58396,"rating":5.0,"reviews":7.0},{"name":"Padma Electrical & Sanitary","lat":17.3125737,"lng":78.5831484,"rating":null,"reviews":null},{"name":"Daman Stationery And Computer Embroidery","lat":17.3038091,"lng":78.5871779,"rating":5.0,"reviews":2.0},{"name":"Chakra Farm Equipments Industry","lat":17.315082,"lng":78.6158969,"rating":4.4,"reviews":76.0},{"name":"SRI VENKATA SAI COMPUTERS & STATIONERY","lat":17.3020543,"lng":78.6136131,"rating":4.4,"reviews":27.0},{"name":"Jai Hanuman Mobiles","lat":17.314309,"lng":78.6119453,"rating":4.7,"reviews":20.0},{"name":"SIDDI VINAYAKA ELECTRICALS AND ELECTRONICS","lat":17.3140169,"lng":78.6144773,"rating":5.0,"reviews":1.0},{"name":"Venu Electrical Works","lat":17.3099239,"lng":78.6140706,"rating":5.0,"reviews":2.0},{"name":"MV XEROX MUNUGANOOR","lat":17.3020222,"lng":78.6086397,"rating":3.9,"reviews":8.0},{"name":"Hanuman Hardware,electrical ,paint & sanitary","lat":17.3193633,"lng":78.6021925,"rating":4.8,"reviews":4.0},{"name":"Sri Ganesh Electrical & Sanitary","lat":17.3145968,"lng":78.603194,"rating":5.0,"reviews":6.0},{"name":"Vidhata Enterprises Electrical & Sanitary","lat":17.3044626,"lng":78.6083056,"rating":null,"reviews":null},{"name":"Krishna Water Tank ,pedda Amberpet","lat":17.3175949,"lng":78.6362728,"rating":4.7,"reviews":23.0},{"name":"Sri Laxmi Electricals","lat":17.3202168,"lng":78.6402939,"rating":5.0,"reviews":1.0},{"name":"RPS Enterprises","lat":17.3091431,"lng":78.6146219,"rating":5.0,"reviews":1.0},{"name":"PRASAD INTERNET, XEROX & MONEY TRANSFER","lat":17.3034839,"lng":78.6088218,"rating":4.3,"reviews":101.0},{"name":"Sri Srinivasa Kirana Stores","lat":17.3033165,"lng":78.6086919,"rating":4.3,"reviews":110.0},{"name":"Sai Srinivasa truck and bus wheel alignments( APOLLO CV POINT)","lat":17.320028,"lng":78.6445261,"rating":4.4,"reviews":23.0},{"name":"Bharath Auto Electrical Works","lat":17.3193178,"lng":78.6474469,"rating":4.3,"reviews":6.0},{"name":"Bhagyalakshmi agencies","lat":17.3135517,"lng":78.6448904,"rating":5.0,"reviews":3.0},{"name":"Pataka Bazar","lat":17.3196704,"lng":78.6205462,"rating":4.0,"reviews":112.0},{"name":"Bismillah Kirana & General Store","lat":17.3345577,"lng":78.2000746,"rating":4.4,"reviews":19.0},{"name":"Sri Mataji Kirana General Store","lat":17.3372196,"lng":78.2587482,"rating":3.9,"reviews":24.0},{"name":"Sai Krishnav Technologies","lat":17.3279341,"lng":78.2725635,"rating":5.0,"reviews":45.0},{"name":"Moinabad","lat":17.3292156,"lng":78.2728189,"rating":4.0,"reviews":2.0},{"name":"uma motors","lat":17.3280608,"lng":78.2709203,"rating":4.5,"reviews":2.0},{"name":"KLV INTERNET","lat":17.3274692,"lng":78.274513,"rating":4.0,"reviews":29.0},{"name":"Sree Balaji electronics &mobilee","lat":17.3291107,"lng":78.2726396,"rating":null,"reviews":null},{"name":"Sree Balaji electronics &mobilee","lat":17.3291119,"lng":78.272638,"rating":null,"reviews":null},{"name":"Ramdev Hardware","lat":17.3274108,"lng":78.2712988,"rating":3.9,"reviews":33.0},{"name":"Masood electricals","lat":17.3289886,"lng":78.2736071,"rating":5.0,"reviews":1.0},{"name":"Sri Sai Traders","lat":17.3290619,"lng":78.2727079,"rating":4.0,"reviews":1.0},{"name":"Bhavani Enterprises","lat":17.3297992,"lng":78.2747037,"rating":5.0,"reviews":2.0},{"name":"S.A. BATTERIES AUTO ELECTRICAL WORKS","lat":17.3241583,"lng":78.2674882,"rating":5.0,"reviews":3.0},{"name":"FAMOUS ELECTRICALS","lat":17.3287937,"lng":78.2728361,"rating":null,"reviews":null},{"name":"TRN Internet & Computer Hardware Solutions","lat":17.3285364,"lng":78.2729765,"rating":5.0,"reviews":5.0},{"name":"Sree Vani Computer Embroidery Work's","lat":17.3277242,"lng":78.2728825,"rating":null,"reviews":null},{"name":"\"SRI GAYATHRI \"MOBILES\"","lat":17.3292075,"lng":78.2728313,"rating":5.0,"reviews":7.0},{"name":"Charan Mobile Shop","lat":17.3288869,"lng":78.2734475,"rating":4.5,"reviews":4.0},{"name":"Sitara Mobiles","lat":17.3290374,"lng":78.2731095,"rating":4.3,"reviews":9.0},{"name":"SRI BALAJI MOBILE\u2019S SUNDIRECT SALE AND SERVICE","lat":17.3273399,"lng":78.2745965,"rating":5.0,"reviews":1.0},{"name":"Sri Mallana Mobiles Sales And Services","lat":17.3299221,"lng":78.2759039,"rating":null,"reviews":null},{"name":"Sangeetha Gadgets - Moinabad (WIPL)","lat":17.329706,"lng":78.274547,"rating":1.0,"reviews":2.0},{"name":"S.S Mobiles","lat":17.3285663,"lng":78.2725773,"rating":null,"reviews":null},{"name":"Central Communications","lat":17.3290046,"lng":78.2731031,"rating":5.0,"reviews":1.0},{"name":"Sri Srinivasa Agencies & Xerox","lat":17.3283957,"lng":78.2728225,"rating":3.0,"reviews":2.0},{"name":"Sri Sanghameshwara Mobiles And Oil Stores","lat":17.3279801,"lng":78.2725359,"rating":5.0,"reviews":2.0},{"name":"Sri Bhavani automobiles","lat":17.3259337,"lng":78.2695605,"rating":4.1,"reviews":9.0},{"name":"Sri Vinayaka Stationery & Sports","lat":17.3293474,"lng":78.2726355,"rating":4.2,"reviews":25.0},{"name":"Ar stationary Toys , Sports And Gifts","lat":17.3284383,"lng":78.273308,"rating":4.0,"reviews":1.0},{"name":"Standard Steels & Cement & Way Bridge","lat":17.3253742,"lng":78.2689095,"rating":4.3,"reviews":31.0},{"name":"Sri Venkateshwara Communication","lat":17.3283909,"lng":78.2728176,"rating":null,"reviews":null},{"name":"Qadri Mobile Accessories","lat":17.331332,"lng":78.2970885,"rating":null,"reviews":null},{"name":"Sri Dev Nakoda Hardware,Electrical & Sanitary","lat":17.3206358,"lng":78.3128368,"rating":5.0,"reviews":1.0},{"name":"SAR Electricals & Civil Contractors","lat":17.3363515,"lng":78.3156907,"rating":null,"reviews":null},{"name":"Jai Bhawani Electricals And Hardware","lat":17.3395486,"lng":78.3113378,"rating":3.8,"reviews":4.0},{"name":"Hanuman Electrical And Hardware","lat":17.3392532,"lng":78.3085646,"rating":5.0,"reviews":1.0},{"name":"Pan Shop","lat":17.3322893,"lng":78.3133774,"rating":5.0,"reviews":2.0},{"name":"Srinivasa General Store","lat":17.3236059,"lng":78.3116396,"rating":4.0,"reviews":57.0},{"name":"Kalagura Gampa Store - Aziz Nagar","lat":17.3397116,"lng":78.3186844,"rating":4.0,"reviews":914.0},{"name":"Sri Balaji Mobiles","lat":17.3396202,"lng":78.3112107,"rating":5.0,"reviews":1.0},{"name":"Al ABBADI'S MOBILE WORLD AND ACCESSORIES","lat":17.3386832,"lng":78.3266366,"rating":5.0,"reviews":65.0},{"name":"JP MOBILE JUNCTION","lat":17.3384402,"lng":78.3265031,"rating":5.0,"reviews":1.0},{"name":"Asgar Kirana & General Store","lat":17.3355935,"lng":78.3716985,"rating":4.3,"reviews":109.0},{"name":"Sri Balaji electronics","lat":17.336161,"lng":78.3911118,"rating":5.0,"reviews":3.0},{"name":"N-star electrical and hardware","lat":17.3342585,"lng":78.3903818,"rating":4.6,"reviews":9.0},{"name":"New Nakoda Hardware (Electrical & Sanitary)","lat":17.3370706,"lng":78.3918327,"rating":3.7,"reviews":11.0},{"name":"VASAVI HARDWARE","lat":17.3380717,"lng":78.3826184,"rating":4.6,"reviews":9.0},{"name":"Ramdev Mobiles","lat":17.3358938,"lng":78.3913732,"rating":5.0,"reviews":66.0},{"name":"Sri Rajeshwari Communications","lat":17.3348053,"lng":78.3912407,"rating":5.0,"reviews":1.0},{"name":"DTH SERVICES AND MOBILE SERVICES CENTER","lat":17.334709,"lng":78.391442,"rating":4.8,"reviews":6.0},{"name":"Joy Xerox Center Ashok","lat":17.3267608,"lng":78.4163549,"rating":3.9,"reviews":70.0},{"name":"Pixel Space Technology Co","lat":17.3215889,"lng":78.4023524,"rating":null,"reviews":null},{"name":"Sairam Electrical Shop","lat":17.3270068,"lng":78.4199351,"rating":4.2,"reviews":17.0},{"name":"Tirumala electronics and refrigeration","lat":17.335704,"lng":78.4081645,"rating":5.0,"reviews":277.0},{"name":"TIRUMALA ELECTRICAL &CHENEYRI","lat":17.3315838,"lng":78.4029892,"rating":5.0,"reviews":2.0},{"name":"Sai Krishna Home Appliances Store","lat":17.321633,"lng":78.4026829,"rating":4.0,"reviews":1.0},{"name":"Golden Traders","lat":17.3367986,"lng":78.4113862,"rating":5.0,"reviews":24.0},{"name":"Ridan Powers","lat":17.3339578,"lng":78.4066543,"rating":5.0,"reviews":1.0},{"name":"MS STAR MOBILES - CCTV - LAPTOPS (BEST STORE IN THIS AREA)","lat":17.3317885,"lng":78.402953,"rating":5.0,"reviews":3.0},{"name":"Metro Xerox and stationary","lat":17.3376438,"lng":78.4119935,"rating":4.8,"reviews":4.0},{"name":"SRI MAHALAKSHMI MOBILES","lat":17.3352707,"lng":78.4036391,"rating":4.8,"reviews":12.0},{"name":"Royal Mobile","lat":17.321913,"lng":78.402322,"rating":5.0,"reviews":1.0},{"name":"PADMAVATHI MOBILES","lat":17.3269499,"lng":78.4276455,"rating":5.0,"reviews":38.0},{"name":"Digi Light Electricals & Hardware","lat":17.3334426,"lng":78.426535,"rating":4.8,"reviews":12.0},{"name":"Balaji Lalit Electrical","lat":17.3281722,"lng":78.4299656,"rating":5.0,"reviews":6.0},{"name":"ROYAL AUTOPARTS & ELECTRICAL","lat":17.3219621,"lng":78.4396252,"rating":3.0,"reviews":2.0},{"name":"Ms Standerd","lat":17.3225889,"lng":78.4304916,"rating":5.0,"reviews":1.0},{"name":"SK ELECTRONICS & HOME APPLIANCES","lat":17.332096,"lng":78.4392712,"rating":4.7,"reviews":6.0},{"name":"Jai Bhavani Electrical Work","lat":17.3205454,"lng":78.4341575,"rating":null,"reviews":null},{"name":"Spinwell electrical works","lat":17.3313391,"lng":78.4272072,"rating":5.0,"reviews":3.0},{"name":"Best Price Flipkart Wholesale","lat":17.3355243,"lng":78.4269262,"rating":4.1,"reviews":4130.0},{"name":"BHARAT COMPUTERS HYDERABAD","lat":17.3254819,"lng":78.433336,"rating":null,"reviews":null},{"name":"Dhruva Xerox & Stationery","lat":17.3271332,"lng":78.4221017,"rating":4.7,"reviews":65.0},{"name":"MOBILE WORLD","lat":17.3347548,"lng":78.4284682,"rating":5.0,"reviews":1.0},{"name":"Milan Mobiles Store","lat":17.322282,"lng":78.4317254,"rating":4.3,"reviews":7.0},{"name":"AZHAR MOBILE","lat":17.3397222,"lng":78.4334456,"rating":5.0,"reviews":3.0},{"name":"Vijetha All Mobile Accessories","lat":17.3204144,"lng":78.434163,"rating":5.0,"reviews":1.0},{"name":"KAREEMA TRADERS Original","lat":17.3352289,"lng":78.4470021,"rating":3.5,"reviews":504.0},{"name":"AR ELECTRONICS","lat":17.325079,"lng":78.4556788,"rating":5.0,"reviews":77.0},{"name":"Jio Store BSNL Airtel vi all sim works av jio fiber airtel fiber all works av esim all aviblie here and smath watch avible","lat":17.3251875,"lng":78.4430625,"rating":5.0,"reviews":741.0},{"name":"Izen Electronics","lat":17.3318276,"lng":78.4493126,"rating":5.0,"reviews":2.0},{"name":"Yousuf Electronics & Home Appliance Mobiles and electronics","lat":17.3282375,"lng":78.4571747,"rating":5.0,"reviews":8.0},{"name":"Royal Electronic Shastripuram","lat":17.3270181,"lng":78.4496375,"rating":4.8,"reviews":10.0},{"name":"Ashiyana Electrical,s","lat":17.3298093,"lng":78.4497073,"rating":3.5,"reviews":4.0},{"name":"Electronic Shop","lat":17.3253238,"lng":78.4561822,"rating":5.0,"reviews":1.0},{"name":"Kings Electrical House Shop","lat":17.3303379,"lng":78.4487343,"rating":5.0,"reviews":2.0},{"name":"Bilal Electionics Shop","lat":17.3298958,"lng":78.4593165,"rating":5.0,"reviews":1.0},{"name":"STAR ELECTRICAL","lat":17.3368538,"lng":78.4506549,"rating":4.3,"reviews":4.0},{"name":"SECURE CCTV SECURITY SYSTEMS","lat":17.3294005,"lng":78.4497352,"rating":4.6,"reviews":9.0},{"name":"High deen","lat":17.3317527,"lng":78.4493562,"rating":1.0,"reviews":1.0},{"name":"Mahaveer Mobiles And Electronics","lat":17.3115536,"lng":78.4389816,"rating":null,"reviews":null},{"name":"MS video hub","lat":17.3313251,"lng":78.4580914,"rating":5.0,"reviews":2.0},{"name":"Malik Sound","lat":17.3234594,"lng":78.4576923,"rating":5.0,"reviews":2.0},{"name":"Sree Sai Baik Point","lat":17.319678,"lng":78.4440371,"rating":2.0,"reviews":2.0},{"name":"RAHEEM ELECTRONIS","lat":17.3220244,"lng":78.456948,"rating":5.0,"reviews":1.0},{"name":"Ak Electrical","lat":17.3376372,"lng":78.4438385,"rating":5.0,"reviews":2.0},{"name":"Tayyab Enterprises","lat":17.3382126,"lng":78.4523143,"rating":4.3,"reviews":4.0},{"name":"Perfect Electrical","lat":17.3275389,"lng":78.4474801,"rating":null,"reviews":null},{"name":"M.M Electronics","lat":17.325409,"lng":78.4561734,"rating":null,"reviews":null},{"name":"Phoenix'S Home Appliances","lat":17.3322019,"lng":78.4543113,"rating":5.0,"reviews":27.0},{"name":"Hyderabad Home Appliances","lat":17.3266673,"lng":78.456057,"rating":null,"reviews":null},{"name":"M R HOME APPLIANCES SALES AND SERVISE","lat":17.3380634,"lng":78.4571092,"rating":5.0,"reviews":13.0},{"name":"Anwar Electrical","lat":17.3326088,"lng":78.4545512,"rating":null,"reviews":null},{"name":"Deccan Electrical","lat":17.3357315,"lng":78.4523457,"rating":1.0,"reviews":1.0},{"name":"R.S.Electricals","lat":17.3261567,"lng":78.4558907,"rating":5.0,"reviews":3.0},{"name":"Hk.Hardware Electrical & Sanitary","lat":17.3401586,"lng":78.4503894,"rating":5.0,"reviews":2.0},{"name":"Rehnuma Winding Work","lat":17.3255828,"lng":78.4559081,"rating":5.0,"reviews":1.0},{"name":"AS Sound","lat":17.3220216,"lng":78.4570081,"rating":null,"reviews":null},{"name":"Shams Electrical","lat":17.3317121,"lng":78.4497127,"rating":5.0,"reviews":2.0},{"name":"ab power technologies finolex cables","lat":17.3215417,"lng":78.4550465,"rating":null,"reviews":null},{"name":"Srinivas Cycle Part And Electrical","lat":17.3209387,"lng":78.4406977,"rating":5.0,"reviews":3.0},{"name":"Bhavani Electrical Moter Work","lat":17.3206358,"lng":78.4343421,"rating":null,"reviews":null},{"name":"MAR Electrical","lat":17.323568,"lng":78.4577102,"rating":5.0,"reviews":1.0},{"name":"Expert Electronics - Best TV Repair service of Hyderabad","lat":17.3305382,"lng":78.4529214,"rating":5.0,"reviews":28.0},{"name":"RIDA vision care optical,& eye clinic computer eyetesting | Best optical shop in Hyderabad","lat":17.3397447,"lng":78.4573585,"rating":5.0,"reviews":67.0},{"name":"Pashas Mobiles Wholesale Accessories","lat":17.3283393,"lng":78.4568799,"rating":4.9,"reviews":12.0},{"name":"Unique Mobile Shop","lat":17.3272427,"lng":78.4496463,"rating":4.6,"reviews":12.0},{"name":"Zam zam mobile shopzamzam","lat":17.3286885,"lng":78.4577054,"rating":4.5,"reviews":12.0},{"name":"A1 MOBILES","lat":17.3222735,"lng":78.4546576,"rating":3.7,"reviews":27.0},{"name":"Nabeel mobiles","lat":17.3223207,"lng":78.4546886,"rating":5.0,"reviews":1.0},{"name":"S A mobile sales and service","lat":17.3329251,"lng":78.4572065,"rating":5.0,"reviews":2.0},{"name":"Arsh Mobile Centre","lat":17.3323611,"lng":78.4553956,"rating":5.0,"reviews":3.0},{"name":"Al Fazal Mobile Accessories","lat":17.3253951,"lng":78.4559752,"rating":5.0,"reviews":4.0},{"name":"T R MOBILE PHONE SOFTWARE SERVICES","lat":17.3219271,"lng":78.4323906,"rating":5.0,"reviews":1.0},{"name":"Amer Mobile Shop","lat":17.3325095,"lng":78.4555518,"rating":null,"reviews":null},{"name":"Sri Durga Mobile Store Gouds","lat":17.3107601,"lng":78.4267712,"rating":3.0,"reviews":13.0},{"name":"KINGS MOBILE Shop","lat":17.3102479,"lng":78.4390214,"rating":5.0,"reviews":1.0},{"name":"Mashallah Mobile's","lat":17.332929,"lng":78.4572176,"rating":null,"reviews":null},{"name":"Skm Daynamic Mobile","lat":17.3365345,"lng":78.4265638,"rating":null,"reviews":null},{"name":"balaji Manish mobile","lat":17.3101707,"lng":78.4392443,"rating":null,"reviews":null},{"name":"S.A Mobile Shop","lat":17.3177012,"lng":78.4501564,"rating":null,"reviews":null},{"name":"PASHA'S mobile","lat":17.3279071,"lng":78.4576916,"rating":null,"reviews":null},{"name":"786 MOBILE SHOP","lat":17.3375591,"lng":78.4575197,"rating":null,"reviews":null},{"name":"Phone Doctor Mobile","lat":17.3358786,"lng":78.4498291,"rating":null,"reviews":null},{"name":"Gulf Retail Shop - Venkateshwara Auto Mobile(Katedan)","lat":17.3072046,"lng":78.4306711,"rating":null,"reviews":null},{"name":"Mashallah Mobile","lat":17.3263052,"lng":78.4579139,"rating":null,"reviews":null},{"name":"N.A.K MOBILE SHOP","lat":17.3294024,"lng":78.4610834,"rating":null,"reviews":null},{"name":"Bajaj Electronics - Chandrayangutta","lat":17.3238471,"lng":78.4717648,"rating":4.0,"reviews":446.0},{"name":"Sound King Electronics","lat":17.3233537,"lng":78.4707002,"rating":5.0,"reviews":4.0},{"name":"RK ELECTRONICS AND HOME APPLIANCES","lat":17.3394971,"lng":78.4680655,"rating":3.6,"reviews":8.0},{"name":"Modern Electrical","lat":17.327277,"lng":78.4689135,"rating":5.0,"reviews":1.0},{"name":"Hussaini Electricals & Stationary","lat":17.3269905,"lng":78.461703,"rating":null,"reviews":null},{"name":"Smart eye security solutions","lat":17.3325227,"lng":78.4696897,"rating":5.0,"reviews":7.0},{"name":"M.S ELECTRONICS","lat":17.3202463,"lng":78.4647786,"rating":5.0,"reviews":1.0},{"name":"Rehan Electronics","lat":17.3290355,"lng":78.4621273,"rating":5.0,"reviews":1.0},{"name":"Bismillah Mobile & Electronics","lat":17.3388408,"lng":78.4669659,"rating":3.0,"reviews":2.0},{"name":"New standard Electrical Shop","lat":17.3224225,"lng":78.4694156,"rating":4.0,"reviews":4.0},{"name":"A-1 Electronics & Mobile","lat":17.3336848,"lng":78.461695,"rating":4.6,"reviews":10.0},{"name":"Majid agencies","lat":17.3272422,"lng":78.4670212,"rating":5.0,"reviews":2.0},{"name":"Reliance SMART Superstore","lat":17.3254605,"lng":78.4780623,"rating":3.8,"reviews":2736.0},{"name":"Super Electricals","lat":17.3296056,"lng":78.4798849,"rating":4.9,"reviews":155.0},{"name":"METRO ELECTRICAL","lat":17.3221371,"lng":78.4803019,"rating":5.0,"reviews":1.0},{"name":"Citizen Electricals","lat":17.3228456,"lng":78.4806735,"rating":4.2,"reviews":22.0},{"name":"New Hi Electrical","lat":17.337558,"lng":78.4656435,"rating":null,"reviews":null},{"name":"LAXMI COOL POINT ELECTRICAL","lat":17.3248307,"lng":78.4791069,"rating":5.0,"reviews":1.0},{"name":"Munazzah Electrical Work Shop","lat":17.3228139,"lng":78.4574329,"rating":null,"reviews":null},{"name":"Tech Ai solutions (Computer & Laptops Repair)","lat":17.3214551,"lng":78.4700496,"rating":5.0,"reviews":10.0},{"name":"AZ Tech & IT Solutions","lat":17.3387965,"lng":78.4670473,"rating":2.3,"reviews":3.0},{"name":"Zam Zam Communication","lat":17.3383051,"lng":78.4664411,"rating":4.5,"reviews":93.0},{"name":"N.S Famous mobiles sale and service","lat":17.3349771,"lng":78.4642533,"rating":4.7,"reviews":10.0},{"name":"RN Mobiles","lat":17.33089,"lng":78.4799346,"rating":5.0,"reviews":10.0},{"name":"Zain Mobile Communication","lat":17.326392,"lng":78.4769943,"rating":5.0,"reviews":2.0},{"name":"Fancy Mobile Accessories And Gift Novelties toys and kids items electric car and bike repair","lat":17.3242249,"lng":78.4715641,"rating":5.0,"reviews":11.0},{"name":"Authorized Samsung Mobiles Stores - Hashamabad, Hyderabad","lat":17.3238504,"lng":78.4717658,"rating":null,"reviews":null},{"name":"Connect MOBILE SHOP","lat":17.3352061,"lng":78.465061,"rating":5.0,"reviews":1.0},{"name":"Mashallah mobile shop","lat":17.324298,"lng":78.4727683,"rating":4.0,"reviews":1.0},{"name":"Marhaba Mobile","lat":17.3251888,"lng":78.4797572,"rating":5.0,"reviews":1.0},{"name":"Syed.s mobile","lat":17.3370801,"lng":78.4715946,"rating":5.0,"reviews":1.0},{"name":"K M Mobiles Store","lat":17.303322,"lng":78.4670166,"rating":null,"reviews":null},{"name":"Prince Mobile 2","lat":17.3075063,"lng":78.4691285,"rating":null,"reviews":null},{"name":"VIJAY SALES - CHANDRAYANGUTTA","lat":17.3311756,"lng":78.487748,"rating":4.9,"reviews":1532.0},{"name":"SS Electronic","lat":17.3301174,"lng":78.4913906,"rating":5.0,"reviews":5.0},{"name":"Master electronic smart service","lat":17.3225972,"lng":78.4898833,"rating":4.4,"reviews":51.0},{"name":"Altaf Electrical","lat":17.3253147,"lng":78.492738,"rating":4.8,"reviews":13.0},{"name":"Shah Electrical Shop","lat":17.3340349,"lng":78.4894233,"rating":4.2,"reviews":5.0},{"name":"Shams Shop","lat":17.3263551,"lng":78.4892545,"rating":3.9,"reviews":39.0},{"name":"YSSR Computers","lat":17.3288427,"lng":78.4818895,"rating":3.6,"reviews":39.0},{"name":"LIMRA REFRIGERATION & ELECTRICALS","lat":17.3314489,"lng":78.4884282,"rating":4.9,"reviews":118.0},{"name":"Ali Restoration And Repairs","lat":17.3303544,"lng":78.4913918,"rating":4.9,"reviews":59.0},{"name":"Sana home appliances feroz bhai","lat":17.3342094,"lng":78.4812977,"rating":5.0,"reviews":2.0},{"name":"LLOYD SHEETAL SERVICES","lat":17.3371911,"lng":78.4911454,"rating":4.8,"reviews":43.0},{"name":"M.S.Fancy lights","lat":17.3273238,"lng":78.4789828,"rating":4.3,"reviews":7.0},{"name":"Habeeb Electrical","lat":17.3238665,"lng":78.4821677,"rating":4.4,"reviews":21.0},{"name":"M Z R COMPUTERS","lat":17.3297467,"lng":78.4913632,"rating":4.3,"reviews":6.0},{"name":"BIG R ENTERPRISES","lat":17.3282187,"lng":78.4914104,"rating":5.0,"reviews":9.0},{"name":"Syed Digital Online Services","lat":17.3329179,"lng":78.4864775,"rating":5.0,"reviews":1.0},{"name":"S R Electricals Store","lat":17.3373125,"lng":78.491424,"rating":5.0,"reviews":1.0},{"name":"Shashi Digital Photo Studio","lat":17.321423,"lng":78.480651,"rating":3.9,"reviews":11.0},{"name":"AK Mobile Accessories","lat":17.3286925,"lng":78.4816309,"rating":5.0,"reviews":20.0},{"name":"NEW AHMADI'S ELECTRICAL & ELECTRONICS","lat":17.3343199,"lng":78.4861971,"rating":5.0,"reviews":1.0},{"name":"R solutions","lat":17.3283594,"lng":78.4882201,"rating":5.0,"reviews":2.0},{"name":"LIGHT HOUSE ELECTRICAL","lat":17.3231745,"lng":78.4887846,"rating":4.5,"reviews":25.0},{"name":"SHABBIR ELECTRICALS","lat":17.3370141,"lng":78.4907956,"rating":5.0,"reviews":3.0},{"name":"FASI ELECTRICALS","lat":17.3365808,"lng":78.4792862,"rating":4.2,"reviews":5.0},{"name":"HF Tech & Power - Electrical Shop","lat":17.3349049,"lng":78.4899215,"rating":null,"reviews":null},{"name":"Amjad Sanitary, Hardware And Electrical","lat":17.3214521,"lng":78.4926437,"rating":5.0,"reviews":3.0},{"name":"Limra Electricals","lat":17.3283765,"lng":78.4806984,"rating":1.0,"reviews":1.0},{"name":"Hi Tech Music Point","lat":17.3244625,"lng":78.4795669,"rating":4.5,"reviews":2.0},{"name":"Star Ma Light And General Store","lat":17.3335036,"lng":78.4863041,"rating":null,"reviews":null},{"name":"New Citizen Electrical","lat":17.3311764,"lng":78.4890581,"rating":null,"reviews":null},{"name":"Zam Zam electrical","lat":17.3351748,"lng":78.4806838,"rating":1.0,"reviews":1.0},{"name":"BHARAT ELECTRONICS","lat":17.3250758,"lng":78.4785409,"rating":1.0,"reviews":1.0},{"name":"S K Electrical","lat":17.3349333,"lng":78.4899319,"rating":null,"reviews":null},{"name":"Asian Tv News","lat":17.3312426,"lng":78.4914765,"rating":4.4,"reviews":50.0},{"name":"CCTV Camera Instalation Maintenance","lat":17.3356753,"lng":78.4878799,"rating":4.5,"reviews":22.0},{"name":"Royal Mobiles","lat":17.3302229,"lng":78.4907758,"rating":3.6,"reviews":17.0},{"name":"AL MADINA MOBILE SHOP","lat":17.3373793,"lng":78.4948385,"rating":5.0,"reviews":7.0},{"name":"RN Mobiles","lat":17.3267236,"lng":78.48969,"rating":5.0,"reviews":2.0},{"name":"SUPER MOBILES - REPAIR SERVICE, & XEROX SHOP","lat":17.3272318,"lng":78.4908381,"rating":5.0,"reviews":5.0},{"name":"MA Mobile Point","lat":17.3254001,"lng":78.4923775,"rating":3.7,"reviews":7.0},{"name":"Bismillah mobile solutions","lat":17.3219185,"lng":78.4940736,"rating":5.0,"reviews":595.0},{"name":"A. K Mobile Sale and Service","lat":17.3221126,"lng":78.4947953,"rating":5.0,"reviews":4.0},{"name":"Zoom Zone Mobile Store","lat":17.3325811,"lng":78.4826068,"rating":5.0,"reviews":1.0},{"name":"Rida Mobile And Watch Sales Services","lat":17.3259506,"lng":78.4920886,"rating":3.7,"reviews":30.0},{"name":"M R Mobile World","lat":17.3378442,"lng":78.4883008,"rating":4.4,"reviews":7.0},{"name":"HR MOBILE ACCESSORIES","lat":17.3301671,"lng":78.4912545,"rating":5.0,"reviews":4.0},{"name":"Faisal Mobiles Store","lat":17.3318873,"lng":78.4896729,"rating":null,"reviews":null},{"name":"Ahmed Mobile Store","lat":17.3223368,"lng":78.4892779,"rating":3.7,"reviews":3.0},{"name":"M. S. Mobile Shop","lat":17.3230419,"lng":78.4967703,"rating":5.0,"reviews":1.0},{"name":"Bajaj Electricals","lat":17.3284247,"lng":78.5194911,"rating":3.8,"reviews":79.0},{"name":"M.M Mobiles","lat":17.328658,"lng":78.4814972,"rating":4.8,"reviews":5.0},{"name":"LLOYD GALLERY (DHARANI AIR CONDITIONER PVT LTD)","lat":17.3266103,"lng":78.51936,"rating":4.5,"reviews":4.0},{"name":"New quick service center & car washing kandikal gate near friends hotel","lat":17.3374117,"lng":78.4805967,"rating":5.0,"reviews":1.0},{"name":"Rate Galley","lat":17.3329541,"lng":78.5210144,"rating":5.0,"reviews":93.0},{"name":"Khusro Enterprises","lat":17.3319357,"lng":78.48981,"rating":3.0,"reviews":2.0},{"name":"Sri Jaanvi Communcatons","lat":17.3192085,"lng":78.5195481,"rating":5.0,"reviews":5.0},{"name":"K.N Electronics","lat":17.3328918,"lng":78.4895186,"rating":3.0,"reviews":2.0},{"name":"Prestige Xclusive - Balapur X Road, Hyderabad","lat":17.3219925,"lng":78.5200656,"rating":4.8,"reviews":109.0},{"name":"New KGN Kitchen Equipment","lat":17.3389773,"lng":78.4993989,"rating":4.3,"reviews":4.0},{"name":"Diamond Refrigeration & Electrical","lat":17.3206023,"lng":78.5199096,"rating":4.0,"reviews":4.0},{"name":"New Super Electrical Works","lat":17.3329183,"lng":78.4865139,"rating":5.0,"reviews":1.0},{"name":"karthik computers","lat":17.3270475,"lng":78.5133218,"rating":4.9,"reviews":15.0},{"name":"Madina Mobile Shop","lat":17.3220014,"lng":78.5200576,"rating":4.8,"reviews":6.0},{"name":"Pushpakram Electronics","lat":17.325146,"lng":78.5237035,"rating":4.8,"reviews":91.0},{"name":"EESL mart","lat":17.3377053,"lng":78.5296458,"rating":5.0,"reviews":16.0},{"name":"R. R. Computers","lat":17.3280695,"lng":78.526286,"rating":4.5,"reviews":82.0},{"name":"Rajshree Mobiles And Accessories","lat":17.3222225,"lng":78.5282276,"rating":5.0,"reviews":10.0},{"name":"Sri Laxmi Narasimha Swamy Electronics","lat":17.3291528,"lng":78.5357695,"rating":5.0,"reviews":2.0},{"name":"Rk Enterprises priyas aquafresh","lat":17.3280158,"lng":78.5262945,"rating":5.0,"reviews":6.0},{"name":"Sri Durga Mobiles& watches","lat":17.3249967,"lng":78.5266873,"rating":5.0,"reviews":2.0},{"name":"SRI GAYATRI ELECTRONICS Meerpet","lat":17.3228712,"lng":78.5287961,"rating":4.2,"reviews":5.0},{"name":"Hari om Electronic And CCTV camera","lat":17.3243766,"lng":78.5271513,"rating":5.0,"reviews":10.0},{"name":"Hindware smart appliances. Onyx Enterprises","lat":17.3378502,"lng":78.529543,"rating":4.5,"reviews":28.0},{"name":"House of Sujata Exclusive Gallery - Ankita Enterprises","lat":17.337342,"lng":78.535812,"rating":3.0,"reviews":4.0},{"name":"Faber Platinum Studio","lat":17.337478,"lng":78.530769,"rating":4.5,"reviews":41.0},{"name":"Crompton Exclusive Store - Av Kitchen Hoods","lat":17.3377289,"lng":78.5295244,"rating":3.7,"reviews":3.0},{"name":"K\u00f6che Exclusive Store - Karmanghat | Kitchen Chimneys, Hobs & Cooktops","lat":17.3378495,"lng":78.5295426,"rating":5.0,"reviews":1.0},{"name":"Laxmi Electricals Sanitary","lat":17.3257851,"lng":78.5267133,"rating":4.8,"reviews":4.0},{"name":"Satyam Electricals Meerpet","lat":17.3224724,"lng":78.5282175,"rating":5.0,"reviews":5.0},{"name":"Sri Venkateshwara Electrical Enterprises","lat":17.3332294,"lng":78.5258424,"rating":4.8,"reviews":4.0},{"name":"Bhagyalakshmi Hardware Sanitary & Electrical","lat":17.3255306,"lng":78.5383647,"rating":4.8,"reviews":19.0},{"name":"Vaishnavi Electricals","lat":17.3221817,"lng":78.5376244,"rating":5.0,"reviews":1.0},{"name":"PAVAN HARDWARE Jillelaguda","lat":17.3316299,"lng":78.5262741,"rating":5.0,"reviews":17.0},{"name":"City Electrical Works","lat":17.3241764,"lng":78.5383151,"rating":4.0,"reviews":1.0},{"name":"Mamatha electricals & hardware","lat":17.3348254,"lng":78.5312618,"rating":3.0,"reviews":2.0},{"name":"S D Electricals","lat":17.3320193,"lng":78.5261385,"rating":5.0,"reviews":1.0},{"name":"Karni matha electric and sanitary","lat":17.3346897,"lng":78.531435,"rating":5.0,"reviews":4.0},{"name":"sri sai electricals & Re winding works","lat":17.3226817,"lng":78.5385521,"rating":null,"reviews":null},